{"meta":{"license":{"license":"Public Domain","author":"Natural Earth","url":"https://www.naturalearthdata.com/downloads/110m-cultural-vectors/","etc":"차트 최적화를 위해 좌표계 변환 및 Feature Polygon 수정"}},"type":"Topology","objects":{"data":{"type":"GeometryCollection","geometries":[{"type":"MultiPolygon","arcs":[[[0,1,2,3]],[[4,5]],[[6,7]],[[8]],[[9]],[[10]],[[11]],[[12]],[[13]],[[14]],[[15]],[[16]],[[17]],[[18]],[[19]],[[20]],[[21]],[[22]],[[23]],[[24]],[[25]],[[26]],[[27]],[[28]],[[29]],[[30]],[[31]],[[32]],[[33]],[[34]],[[35]],[[36]],[[37]],[[38]]],"id":"IDN","properties":{"rm-id":"IDN","name":"인도네시아","name-en":"Indonesia","iso-a2":"ID","iso-a3":"IDN","ctr-lon":101.892949,"ctr-lat":-0.954404,"continent":"Asia"}},{"type":"MultiPolygon","arcs":[[[39,40]],[[41,42,-5,43]]],"id":"MYS","properties":{"rm-id":"MYS","name":"말레이시아","name-en":"Malaysia","iso-a2":"MY","iso-a3":"MYS","ctr-lon":113.83708,"ctr-lat":2.528667,"continent":"Asia"}},{"type":"MultiPolygon","arcs":[[[44,45,46,47,48,49]],[[50,51]],[[52]],[[53]],[[54]],[[55]],[[56]],[[57]]],"id":"CHL","properties":{"rm-id":"CHL","name":"칠레","name-en":"Chile","iso-a2":"CL","iso-a3":"CHL","ctr-lon":-72.318871,"ctr-lat":-38.151771,"continent":"South America"}},{"type":"Polygon","arcs":[[-50,58,59,60,61]],"id":"BOL","properties":{"rm-id":"BOL","name":"볼리비아","name-en":"Bolivia","iso-a2":"BO","iso-a3":"BOL","ctr-lon":-64.593433,"ctr-lat":-16.666015,"continent":"South America"}},{"type":"Polygon","arcs":[[-62,62,63,64,65,-45]],"id":"PER","properties":{"rm-id":"PER","name":"페루","name-en":"Peru","iso-a2":"PE","iso-a3":"PER","ctr-lon":-72.90016,"ctr-lat":-12.976679,"continent":"South America"}},{"type":"MultiPolygon","arcs":[[[-49,66,-47,67,68,69,70,-59]],[[71,-52]]],"id":"ARG","properties":{"rm-id":"ARG","name":"아르헨티나","name-en":"Argentina","iso-a2":"AR","iso-a3":"ARG","ctr-lon":-64.173331,"ctr-lat":-33.501159,"continent":"South America"}},{"type":"Polygon","arcs":[[72,73,74,75,76,77]],"id":"ESB","properties":{"rm-id":"ESB","name":"데켈리아 지역","name-en":"Dhekelia Cantonment","iso-a2":"-99","iso-a3":"-99","ctr-lon":33.790583,"ctr-lat":35.011042,"continent":"Asia"}},{"type":"MultiPolygon","arcs":[[[78,79,80,81,-78]],[[-74,82,83]]],"id":"CYP","properties":{"rm-id":"CYP","name":"키프로스","name-en":"Cyprus","iso-a2":"CY","iso-a3":"CYP","ctr-lon":33.084182,"ctr-lat":34.913329,"continent":"Asia"}},{"type":"MultiPolygon","arcs":[[[84,85,86,87,88,89,90,91,92,93]],[[94]]],"id":"IND","properties":{"rm-id":"IND","name":"인도","name-en":"India","iso-a2":"IN","iso-a3":"IND","ctr-lon":79.358105,"ctr-lat":22.686852,"continent":"Asia"}},{"type":"MultiPolygon","arcs":[[[-94,95,-92,96,-90,97,98,99,100,101,102,103,104,105,106,107,108,109,110,111,112]],[[113]]],"id":"CHN","properties":{"rm-id":"CHN","name":"중화인민공화국","name-en":"People's Republic of China","iso-a2":"CN","iso-a3":"CHN","ctr-lon":106.337289,"ctr-lat":32.498178,"continent":"Asia"}},{"type":"Polygon","arcs":[[114,115,116,117,118,119,120,121,122]],"id":"ISR","properties":{"rm-id":"ISR","name":"이스라엘","name-en":"Israel","iso-a2":"IL","iso-a3":"ISR","ctr-lon":34.847915,"ctr-lat":30.911148,"continent":"Asia"}},{"type":"MultiPolygon","arcs":[[[123,124,-123]],[[-118,125]]],"id":"PSX","properties":{"rm-id":"PSX","name":"팔레스타인","name-en":"Palestine","iso-a2":"PS","iso-a3":"PSE","ctr-lon":35.291341,"ctr-lat":32.047431,"continent":"Asia"}},{"type":"Polygon","arcs":[[-121,126,127]],"id":"LBN","properties":{"rm-id":"LBN","name":"레바논","name-en":"Lebanon","iso-a2":"LB","iso-a3":"LBN","ctr-lon":35.992892,"ctr-lat":34.133368,"continent":"Asia"}},{"type":"Polygon","arcs":[[128,129,130,131,132,133,134]],"id":"ETH","properties":{"rm-id":"ETH","name":"에티오피아","name-en":"Ethiopia","iso-a2":"ET","iso-a3":"ETH","ctr-lon":39.0886,"ctr-lat":8.032795,"continent":"Africa"}},{"type":"Polygon","arcs":[[-129,135,136,137,138,139]],"id":"SDS","properties":{"rm-id":"SDS","name":"남수단","name-en":"South Sudan","iso-a2":"SS","iso-a3":"SSD","ctr-lon":30.390151,"ctr-lat":7.230477,"continent":"Africa"}},{"type":"Polygon","arcs":[[-131,140,141,142]],"id":"SOM","properties":{"rm-id":"SOM","name":"소말리아","name-en":"Somalia","iso-a2":"SO","iso-a3":"SOM","ctr-lon":45.19238,"ctr-lat":3.568925,"continent":"Africa"}},{"type":"Polygon","arcs":[[-140,143,144,145,-141,-130]],"id":"KEN","properties":{"rm-id":"KEN","name":"케냐","name-en":"Kenya","iso-a2":"KE","iso-a3":"KEN","ctr-lon":37.907632,"ctr-lat":0.549043,"continent":"Africa"}},{"type":"Polygon","arcs":[[146,147,148]],"id":"MWI","properties":{"rm-id":"MWI","name":"말라위","name-en":"Malawi","iso-a2":"MW","iso-a3":"MWI","ctr-lon":33.608082,"ctr-lat":-13.386737,"continent":"Africa"}},{"type":"Polygon","arcs":[[-147,149,150,-145,151,152,153,154,155]],"id":"TZA","properties":{"rm-id":"TZA","name":"탄자니아","name-en":"Tanzania","iso-a2":"TZ","iso-a3":"TZA","ctr-lon":34.959183,"ctr-lat":-6.051866,"continent":"Africa"}},{"type":"Polygon","arcs":[[156,157,158,159,-127,-120]],"id":"SYR","properties":{"rm-id":"SYR","name":"시리아","name-en":"Syria","iso-a2":"SY","iso-a3":"SYR","ctr-lon":38.277783,"ctr-lat":35.006636,"continent":"Asia"}},{"type":"Polygon","arcs":[[160,161,-132,-143]],"id":"SOL","properties":{"rm-id":"SOL","name":"소말릴란드","name-en":"Somaliland","iso-a2":"-99","iso-a3":"-99","ctr-lon":46.731595,"ctr-lat":9.443889,"continent":"Africa"}},{"type":"MultiPolygon","arcs":[[[162,163,164]],[[165,166,167,168,169,170,171,172,173,174,175,176]],[[177]],[[178]]],"id":"FRA","properties":{"rm-id":"FRA","name":"프랑스","name-en":"France","iso-a2":"FR","iso-a3":"FRA","ctr-lon":2.552275,"ctr-lat":46.696113,"continent":"Europe"}},{"type":"Polygon","arcs":[[-165,179,180,181]],"id":"SUR","properties":{"rm-id":"SUR","name":"수리남","name-en":"Suriname","iso-a2":"SR","iso-a3":"SUR","ctr-lon":-55.91094,"ctr-lat":4.143987,"continent":"South America"}},{"type":"Polygon","arcs":[[-181,182,183,184]],"id":"GUY","properties":{"rm-id":"GUY","name":"가이아나","name-en":"Guyana","iso-a2":"GY","iso-a3":"GUY","ctr-lon":-58.942643,"ctr-lat":5.124317,"continent":"South America"}},{"type":"MultiPolygon","arcs":[[[185,186]],[[187]]],"id":"KOR","properties":{"rm-id":"KOR","name":"대한민국","name-en":"South Korea","iso-a2":"KR","iso-a3":"KOR","ctr-lon":128.129504,"ctr-lat":36.384924,"continent":"Asia"}},{"type":"Polygon","arcs":[[188,189,-104,190,-186]],"id":"PRK","properties":{"rm-id":"PRK","name":"조선민주주의인민공화국","name-en":"North Korea","iso-a2":"KP","iso-a3":"PRK","ctr-lon":126.444516,"ctr-lat":39.885252,"continent":"Asia"}},{"type":"Polygon","arcs":[[191,192,193]],"id":"MAR","properties":{"rm-id":"MAR","name":"모로코","name-en":"Morocco","iso-a2":"MA","iso-a3":"MAR","ctr-lon":-7.187296,"ctr-lat":31.650723,"continent":"Africa"}},{"type":"Polygon","arcs":[[-192,194,195,196]],"id":"SAH","properties":{"rm-id":"SAH","name":"서사하라","name-en":"Western Sahara","iso-a2":"EH","iso-a3":"ESH","ctr-lon":-12.630304,"ctr-lat":23.967592,"continent":"Africa"}},{"type":"Polygon","arcs":[[197,198,199,200]],"id":"CRI","properties":{"rm-id":"CRI","name":"코스타리카","name-en":"Costa Rica","iso-a2":"CR","iso-a3":"CRI","ctr-lon":-84.077922,"ctr-lat":10.0651,"continent":"North America"}},{"type":"Polygon","arcs":[[-198,201,202,203]],"id":"NIC","properties":{"rm-id":"NIC","name":"니카라과","name-en":"Nicaragua","iso-a2":"NI","iso-a3":"NIC","ctr-lon":-85.069347,"ctr-lat":12.670697,"continent":"North America"}},{"type":"Polygon","arcs":[[204,205,206,207,208,209]],"id":"COG","properties":{"rm-id":"COG","name":"콩고 공화국","name-en":"Republic of the Congo","iso-a2":"CG","iso-a3":"COG","ctr-lon":15.9005,"ctr-lat":0.142331,"continent":"Africa"}},{"type":"Polygon","arcs":[[-210,210,211,212,213,-155,214,215,216,-138,217]],"id":"COD","properties":{"rm-id":"COD","name":"콩고 민주 공화국","name-en":"Democratic Republic of the Congo","iso-a2":"CD","iso-a3":"COD","ctr-lon":23.458829,"ctr-lat":-1.858167,"continent":"Africa"}},{"type":"Polygon","arcs":[[-97,-91]],"id":"BTN","properties":{"rm-id":"BTN","name":"부탄","name-en":"Bhutan","iso-a2":"BT","iso-a3":"BTN","ctr-lon":90.040294,"ctr-lat":27.536685,"continent":"Asia"}},{"type":"Polygon","arcs":[[218,219,220,221,222,223,224,225,226,227,228]],"id":"UKR","properties":{"rm-id":"UKR","name":"우크라이나","name-en":"Ukraine","iso-a2":"UA","iso-a3":"UKR","ctr-lon":32.140865,"ctr-lat":49.724739,"continent":"Europe"}},{"type":"Polygon","arcs":[[-219,229,230,231,232]],"id":"BLR","properties":{"rm-id":"BLR","name":"벨라루스","name-en":"Belarus","iso-a2":"BY","iso-a3":"BLR","ctr-lon":28.417701,"ctr-lat":53.821888,"continent":"Europe"}},{"type":"Polygon","arcs":[[233,234,235,236,237]],"id":"NAM","properties":{"rm-id":"NAM","name":"나미비아","name-en":"Namibia","iso-a2":"NA","iso-a3":"NAM","ctr-lon":17.108166,"ctr-lat":-20.575298,"continent":"Africa"}},{"type":"Polygon","arcs":[[-234,238,239,240,241,242,243],[244]],"id":"ZAF","properties":{"rm-id":"ZAF","name":"남아프리카 공화국","name-en":"South Africa","iso-a2":"ZA","iso-a3":"ZAF","ctr-lon":23.665734,"ctr-lat":-29.708776,"continent":"Africa"}},{"type":"Polygon","arcs":[[245,246]],"id":"MAF","properties":{"rm-id":"MAF","name":"생마르탱","name-en":"Saint Martin","iso-a2":"MF","iso-a3":"MAF","ctr-lon":-63.049399,"ctr-lat":18.081302,"continent":"North America"}},{"type":"Polygon","arcs":[[247,-247]],"id":"SXM","properties":{"rm-id":"SXM","name":"신트마르턴","name-en":"Sint Maarten","iso-a2":"SX","iso-a3":"SXM","ctr-lon":-63.070133,"ctr-lat":18.04088,"continent":"North America"}},{"type":"MultiPolygon","arcs":[[[248,249]],[[250,251,252,253]]],"id":"OMN","properties":{"rm-id":"OMN","name":"오만","name-en":"Oman","iso-a2":"OM","iso-a3":"OMN","ctr-lon":57.336553,"ctr-lat":22.120427,"continent":"Asia"}},{"type":"Polygon","arcs":[[254,255,256,257,258]],"id":"UZB","properties":{"rm-id":"UZB","name":"우즈베키스탄","name-en":"Uzbekistan","iso-a2":"UZ","iso-a3":"UZB","ctr-lon":64.005429,"ctr-lat":41.693603,"continent":"Asia"}},{"type":"Polygon","arcs":[[-108,259,260,261,-256,262]],"id":"KAZ","properties":{"rm-id":"KAZ","name":"카자흐스탄","name-en":"Kazakhstan","iso-a2":"KZ","iso-a3":"KAZ","ctr-lon":68.685548,"ctr-lat":49.054149,"continent":"Asia"}},{"type":"Polygon","arcs":[[-259,263,-110,264]],"id":"TJK","properties":{"rm-id":"TJK","name":"타지키스탄","name-en":"Tajikistan","iso-a2":"TJ","iso-a3":"TJK","ctr-lon":72.587276,"ctr-lat":38.199835,"continent":"Asia"}},{"type":"Polygon","arcs":[[265,266,267,268,-232]],"id":"LTU","properties":{"rm-id":"LTU","name":"리투아니아","name-en":"Lithuania","iso-a2":"LT","iso-a3":"LTU","ctr-lon":24.089932,"ctr-lat":55.103703,"continent":"Europe"}},{"type":"MultiPolygon","arcs":[[[-70,269,270,-163,-182,-185,271,272,-63,-61,273]],[[274]],[[275]],[[276]]],"id":"BRA","properties":{"rm-id":"BRA","name":"브라질","name-en":"Brazil","iso-a2":"BR","iso-a3":"BRA","ctr-lon":-49.55945,"ctr-lat":-12.098687,"continent":"South America"}},{"type":"Polygon","arcs":[[-270,-69,277]],"id":"URY","properties":{"rm-id":"URY","name":"우루과이","name-en":"Uruguay","iso-a2":"UY","iso-a3":"URY","ctr-lon":-55.966942,"ctr-lat":-32.961127,"continent":"South America"}},{"type":"Polygon","arcs":[[278,-106]],"id":"MNG","properties":{"rm-id":"MNG","name":"몽골","name-en":"Mongolia","iso-a2":"MN","iso-a3":"MNG","ctr-lon":104.150405,"ctr-lat":45.997488,"continent":"Asia"}},{"type":"MultiPolygon","arcs":[[[-279,-105,-190,279,280,281,282,283,284,-230,-229,285,286,287,288,-260,-107]],[[-268,289,290]],[[291,-227]],[[292]],[[293]],[[294]],[[295]],[[296]],[[297]],[[298]],[[299]],[[300]],[[301]],[[302]],[[303]],[[304]],[[305]],[[306]],[[307]],[[308]],[[309]],[[310]],[[311]]],"id":"RUS","properties":{"rm-id":"RUS","name":"러시아","name-en":"Russia","iso-a2":"RU","iso-a3":"RUS","ctr-lon":44.686469,"ctr-lat":58.249357,"continent":"Europe"}},{"type":"Polygon","arcs":[[312,313,314,315]],"id":"CZE","properties":{"rm-id":"CZE","name":"체코","name-en":"Czech Republic","iso-a2":"CZ","iso-a3":"CZE","ctr-lon":15.377555,"ctr-lat":49.882364,"continent":"Europe"}},{"type":"Polygon","arcs":[[-313,316,317,318,319,320,321,322,-175,323,324]],"id":"DEU","properties":{"rm-id":"DEU","name":"독일","name-en":"Germany","iso-a2":"DE","iso-a3":"DEU","ctr-lon":9.678348,"ctr-lat":50.961733,"continent":"Europe"}},{"type":"MultiPolygon","arcs":[[[325,-284,326]],[[327]]],"id":"EST","properties":{"rm-id":"EST","name":"에스토니아","name-en":"Estonia","iso-a2":"EE","iso-a3":"EST","ctr-lon":25.867126,"ctr-lat":58.724865,"continent":"Europe"}},{"type":"Polygon","arcs":[[-326,328,-266,-231,-285]],"id":"LVA","properties":{"rm-id":"LVA","name":"라트비아","name-en":"Latvia","iso-a2":"LV","iso-a3":"LVA","ctr-lon":25.458723,"ctr-lat":57.066872,"continent":"Europe"}},{"type":"MultiPolygon","arcs":[[[329,-281,330,331]],[[332]],[[333]],[[334]],[[335]]],"id":"NOR","properties":{"rm-id":"NOR","name":"노르웨이","name-en":"Norway","iso-a2":"NO","iso-a3":"NOR","ctr-lon":9.679975,"ctr-lat":61.357092,"continent":"Europe"}},{"type":"MultiPolygon","arcs":[[[-332,336,337]],[[338]]],"id":"SWE","properties":{"rm-id":"SWE","name":"스웨덴","name-en":"Sweden","iso-a2":"SE","iso-a3":"SWE","ctr-lon":19.01705,"ctr-lat":65.85918,"continent":"Europe"}},{"type":"Polygon","arcs":[[-330,-338,339,-282]],"id":"FIN","properties":{"rm-id":"FIN","name":"핀란드","name-en":"Finland","iso-a2":"FI","iso-a3":"FIN","ctr-lon":27.276449,"ctr-lat":63.252361,"continent":"Europe"}},{"type":"Polygon","arcs":[[340,341,-100,342]],"id":"VNM","properties":{"rm-id":"VNM","name":"베트남","name-en":"Vietnam","iso-a2":"VN","iso-a3":"VNM","ctr-lon":105.387292,"ctr-lat":21.715416,"continent":"Asia"}},{"type":"Polygon","arcs":[[343,344,345,-341]],"id":"KHM","properties":{"rm-id":"KHM","name":"캄보디아","name-en":"Cambodia","iso-a2":"KH","iso-a3":"KHM","ctr-lon":104.50487,"ctr-lat":12.647584,"continent":"Asia"}},{"type":"Polygon","arcs":[[346,-176,-323]],"id":"LUX","properties":{"rm-id":"LUX","name":"룩셈부르크","name-en":"Luxembourg","iso-a2":"LU","iso-a3":"LUX","ctr-lon":6.07762,"ctr-lat":49.733732,"continent":"Europe"}},{"type":"Polygon","arcs":[[-249,347,348,-251,349]],"id":"ARE","properties":{"rm-id":"ARE","name":"아랍에미리트","name-en":"United Arab Emirates","iso-a2":"AE","iso-a3":"ARE","ctr-lon":54.547256,"ctr-lat":23.466285,"continent":"Asia"}},{"type":"Polygon","arcs":[[-177,-347,-322,350,351,352,353]],"id":"BEL","properties":{"rm-id":"BEL","name":"벨기에","name-en":"Belgium","iso-a2":"BE","iso-a3":"BEL","ctr-lon":4.800448,"ctr-lat":50.785392,"continent":"Europe"}},{"type":"Polygon","arcs":[[354,355,356,357,-287]],"id":"GEO","properties":{"rm-id":"GEO","name":"조지아","name-en":"Georgia","iso-a2":"GE","iso-a3":"GEO","ctr-lon":43.735724,"ctr-lat":41.870087,"continent":"Asia"}},{"type":"Polygon","arcs":[[358,359,360,361,362]],"id":"MKD","properties":{"rm-id":"MKD","name":"북마케도니아","name-en":"North Macedonia","iso-a2":"MK","iso-a3":"MKD","ctr-lon":21.555839,"ctr-lat":41.558223,"continent":"Europe"}},{"type":"Polygon","arcs":[[363,364,365,366,-359]],"id":"ALB","properties":{"rm-id":"ALB","name":"알바니아","name-en":"Albania","iso-a2":"AL","iso-a3":"ALB","ctr-lon":20.11384,"ctr-lat":40.654855,"continent":"Europe"}},{"type":"MultiPolygon","arcs":[[[367,368,369,-288,-358]],[[370,371,372]]],"id":"AZE","properties":{"rm-id":"AZE","name":"아제르바이잔","name-en":"Azerbaijan","iso-a2":"AZ","iso-a3":"AZE","ctr-lon":47.210994,"ctr-lat":40.402387,"continent":"Asia"}},{"type":"Polygon","arcs":[[-364,-363,373,374]],"id":"KOS","properties":{"rm-id":"KOS","name":"코소보","name-en":"Kosovo","iso-a2":"XK","iso-a3":"-99","ctr-lon":20.860719,"ctr-lat":42.593587,"continent":"Europe"}},{"type":"MultiPolygon","arcs":[[[-356,375,-159,376,377,-372,378]],[[379,380,381]]],"id":"TUR","properties":{"rm-id":"TUR","name":"튀르키예","name-en":"Turkey","iso-a2":"TR","iso-a3":"TUR","ctr-lon":34.508268,"ctr-lat":39.345388,"continent":"Asia"}},{"type":"MultiPolygon","arcs":[[[382,383,384,385,386,-169,387,-167]],[[388]],[[389]]],"id":"ESP","properties":{"rm-id":"ESP","name":"스페인","name-en":"Spain","iso-a2":"ES","iso-a3":"ESP","ctr-lon":-3.464718,"ctr-lat":40.090953,"continent":"Europe"}},{"type":"Polygon","arcs":[[-99,390,391,-344,-343]],"id":"LAO","properties":{"rm-id":"LAO","name":"라오스","name-en":"Laos","iso-a2":"LA","iso-a3":"LAO","ctr-lon":102.533912,"ctr-lat":19.431821,"continent":"Asia"}},{"type":"Polygon","arcs":[[-263,-255,-265,-109]],"id":"KGZ","properties":{"rm-id":"KGZ","name":"키르기스스탄","name-en":"Kyrgyzstan","iso-a2":"KG","iso-a3":"KGZ","ctr-lon":74.532637,"ctr-lat":41.66854,"continent":"Asia"}},{"type":"Polygon","arcs":[[-357,-379,-371,392,-368]],"id":"ARM","properties":{"rm-id":"ARM","name":"아르메니아","name-en":"Armenia","iso-a2":"AM","iso-a3":"ARM","ctr-lon":44.800564,"ctr-lat":40.459077,"continent":"Asia"}},{"type":"MultiPolygon","arcs":[[[-319,393]],[[394]],[[395]]],"id":"DNK","properties":{"rm-id":"DNK","name":"덴마크","name-en":"Denmark","iso-a2":"DK","iso-a3":"DNK","ctr-lon":9.018163,"ctr-lat":55.966965,"continent":"Europe"}},{"type":"Polygon","arcs":[[396,397,398,399,400,401,402]],"id":"LBY","properties":{"rm-id":"LBY","name":"리비아","name-en":"Libya","iso-a2":"LY","iso-a3":"LBY","ctr-lon":18.011015,"ctr-lat":26.638944,"continent":"Africa"}},{"type":"Polygon","arcs":[[403,404,-397]],"id":"TUN","properties":{"rm-id":"TUN","name":"튀니지","name-en":"Tunisia","iso-a2":"TN","iso-a3":"TUN","ctr-lon":9.007881,"ctr-lat":33.687263,"continent":"Africa"}},{"type":"Polygon","arcs":[[405,406,407,408,-225,409,-223]],"id":"ROU","properties":{"rm-id":"ROU","name":"루마니아","name-en":"Romania","iso-a2":"RO","iso-a3":"ROU","ctr-lon":24.972624,"ctr-lat":45.733237,"continent":"Europe"}},{"type":"Polygon","arcs":[[-222,410,411,412,413,414,-406]],"id":"HUN","properties":{"rm-id":"HUN","name":"헝가리","name-en":"Hungary","iso-a2":"HU","iso-a3":"HUN","ctr-lon":19.447867,"ctr-lat":47.086841,"continent":"Europe"}},{"type":"Polygon","arcs":[[415,-315,416,-411,-221]],"id":"SVK","properties":{"rm-id":"SVK","name":"슬로바키아","name-en":"Slovakia","iso-a2":"SK","iso-a3":"SVK","ctr-lon":19.049868,"ctr-lat":48.734044,"continent":"Europe"}},{"type":"Polygon","arcs":[[-416,-220,-233,-269,-291,417,-317,-316]],"id":"POL","properties":{"rm-id":"POL","name":"폴란드","name-en":"Poland","iso-a2":"PL","iso-a3":"POL","ctr-lon":19.490468,"ctr-lat":51.990316,"continent":"Europe"}},{"type":"Polygon","arcs":[[418,419]],"id":"IRL","properties":{"rm-id":"IRL","name":"아일랜드","name-en":"Ireland","iso-a2":"IE","iso-a3":"IRL","ctr-lon":-7.798588,"ctr-lat":53.078726,"continent":"Europe"}},{"type":"MultiPolygon","arcs":[[[-420,420]],[[421]],[[422]]],"id":"GBR","properties":{"rm-id":"GBR","name":"영국","name-en":"United Kingdom","iso-a2":"GB","iso-a3":"GBR","ctr-lon":-2.116346,"ctr-lat":54.402739,"continent":"Europe"}},{"type":"MultiPolygon","arcs":[[[-367,423,-381,424,-360]],[[425]],[[426]]],"id":"GRC","properties":{"rm-id":"GRC","name":"그리스","name-en":"Greece","iso-a2":"GR","iso-a3":"GRC","ctr-lon":21.72568,"ctr-lat":39.492763,"continent":"Europe"}},{"type":"Polygon","arcs":[[-156,-214,427,-236,428,429,-148]],"id":"ZMB","properties":{"rm-id":"ZMB","name":"잠비아","name-en":"Zambia","iso-a2":"ZM","iso-a3":"ZMB","ctr-lon":26.395298,"ctr-lat":-14.660804,"continent":"Africa"}},{"type":"Polygon","arcs":[[430,431,432]],"id":"SLE","properties":{"rm-id":"SLE","name":"시에라리온","name-en":"Sierra Leone","iso-a2":"SL","iso-a3":"SLE","ctr-lon":-11.763677,"ctr-lat":8.617449,"continent":"Africa"}},{"type":"Polygon","arcs":[[-431,433,434,435,436,437,438]],"id":"GIN","properties":{"rm-id":"GIN","name":"기니","name-en":"Guinea","iso-a2":"GN","iso-a3":"GIN","ctr-lon":-10.016402,"ctr-lat":10.618516,"continent":"Africa"}},{"type":"Polygon","arcs":[[439,440,-434,-433]],"id":"LBR","properties":{"rm-id":"LBR","name":"라이베리아","name-en":"Liberia","iso-a2":"LR","iso-a3":"LBR","ctr-lon":-9.460379,"ctr-lat":6.447177,"continent":"Africa"}},{"type":"Polygon","arcs":[[441,442,-205,-218,-137,443]],"id":"CAF","properties":{"rm-id":"CAF","name":"중앙아프리카 공화국","name-en":"Central African Republic","iso-a2":"CF","iso-a3":"CAF","ctr-lon":20.906897,"ctr-lat":6.989681,"continent":"Africa"}},{"type":"Polygon","arcs":[[-444,-136,-135,444,445,446,447,448,-401,449]],"id":"SDN","properties":{"rm-id":"SDN","name":"수단","name-en":"Sudan","iso-a2":"SD","iso-a3":"SDN","ctr-lon":29.260657,"ctr-lat":16.330746,"continent":"Africa"}},{"type":"Polygon","arcs":[[450,451,-133,-162]],"id":"DJI","properties":{"rm-id":"DJI","name":"지부티","name-en":"Djibouti","iso-a2":"DJ","iso-a3":"DJI","ctr-lon":42.498825,"ctr-lat":11.976343,"continent":"Africa"}},{"type":"Polygon","arcs":[[452,-445,-134,-452]],"id":"ERI","properties":{"rm-id":"ERI","name":"에리트레아","name-en":"Eritrea","iso-a2":"ER","iso-a3":"ERI","ctr-lon":38.285566,"ctr-lat":15.787401,"continent":"Africa"}},{"type":"Polygon","arcs":[[-314,-325,453,454,455,456,457,-412,-417]],"id":"AUT","properties":{"rm-id":"AUT","name":"오스트리아","name-en":"Austria","iso-a2":"AT","iso-a3":"AUT","ctr-lon":14.130515,"ctr-lat":47.518859,"continent":"Europe"}},{"type":"Polygon","arcs":[[-377,-158,458,459,460,461,462]],"id":"IRQ","properties":{"rm-id":"IRQ","name":"이라크","name-en":"Iraq","iso-a2":"IQ","iso-a3":"IRQ","ctr-lon":43.26181,"ctr-lat":33.09403,"continent":"Asia"}},{"type":"MultiPolygon","arcs":[[[-173,463,464,-457,465],[466],[467]],[[468]],[[469]]],"id":"ITA","properties":{"rm-id":"ITA","name":"이탈리아","name-en":"Italy","iso-a2":"IT","iso-a3":"ITA","ctr-lon":11.076907,"ctr-lat":44.732482,"continent":"Europe"}},{"type":"Polygon","arcs":[[-456,470,-454,-324,-174,-466]],"id":"CHE","properties":{"rm-id":"CHE","name":"스위스","name-en":"Switzerland","iso-a2":"CH","iso-a3":"CHE","ctr-lon":7.463965,"ctr-lat":46.719114,"continent":"Europe"}},{"type":"Polygon","arcs":[[-378,-463,471,472,473,474,475,-369,-393,-373]],"id":"IRN","properties":{"rm-id":"IRN","name":"이란","name-en":"Iran","iso-a2":"IR","iso-a3":"IRN","ctr-lon":54.931495,"ctr-lat":32.166225,"continent":"Asia"}},{"type":"MultiPolygon","arcs":[[[476,-351,-321]],[[-353,477]]],"id":"NLD","properties":{"rm-id":"NLD","name":"네덜란드","name-en":"Netherlands","iso-a2":"NL","iso-a3":"NLD","ctr-lon":5.61144,"ctr-lat":52.422211,"continent":"Europe"}},{"type":"Polygon","arcs":[[-471,-455]],"id":"LIE","properties":{"rm-id":"LIE","name":"리히텐슈타인","name-en":"Liechtenstein","iso-a2":"LI","iso-a3":"LIE","ctr-lon":9.559439,"ctr-lat":47.111405,"continent":"Europe"}},{"type":"Polygon","arcs":[[-435,-441,478,479,480,481]],"id":"CIV","properties":{"rm-id":"CIV","name":"코트디부아르","name-en":"Ivory Coast","iso-a2":"CI","iso-a3":"CIV","ctr-lon":-5.568618,"ctr-lat":7.49139,"continent":"Africa"}},{"type":"Polygon","arcs":[[-415,482,483,484,-374,-362,485,-407]],"id":"SRB","properties":{"rm-id":"SRB","name":"세르비아","name-en":"Serbia","iso-a2":"RS","iso-a3":"SRB","ctr-lon":20.787989,"ctr-lat":44.189919,"continent":"Europe"}},{"type":"Polygon","arcs":[[486,-436,-482,487,488,489,490]],"id":"MLI","properties":{"rm-id":"MLI","name":"말리","name-en":"Mali","iso-a2":"ML","iso-a3":"MLI","ctr-lon":-2.038455,"ctr-lat":18.692713,"continent":"Africa"}},{"type":"Polygon","arcs":[[491,492,493,494,495,-437,-487]],"id":"SEN","properties":{"rm-id":"SEN","name":"세네갈","name-en":"Senegal","iso-a2":"SN","iso-a3":"SEN","ctr-lon":-14.778586,"ctr-lat":15.138125,"continent":"Africa"}},{"type":"Polygon","arcs":[[496,497,498,499,500]],"id":"NGA","properties":{"rm-id":"NGA","name":"나이지리아","name-en":"Nigeria","iso-a2":"NG","iso-a3":"NGA","ctr-lon":7.50322,"ctr-lat":9.439799,"continent":"Africa"}},{"type":"Polygon","arcs":[[501,502,503,504,-497]],"id":"BEN","properties":{"rm-id":"BEN","name":"베냉","name-en":"Benin","iso-a2":"BJ","iso-a3":"BEN","ctr-lon":2.352018,"ctr-lat":10.324775,"continent":"Africa"}},{"type":"MultiPolygon","arcs":[[[-209,505,-211]],[[-213,506,-237,-428]]],"id":"AGO","properties":{"rm-id":"AGO","name":"앙골라","name-en":"Angola","iso-a2":"AO","iso-a3":"AGO","ctr-lon":17.984249,"ctr-lat":-12.182762,"continent":"Africa"}},{"type":"MultiPolygon","arcs":[[[507,508,509,-483,-414]],[[510,511,512]]],"id":"HRV","properties":{"rm-id":"HRV","name":"크로아티아","name-en":"Croatia","iso-a2":"HR","iso-a3":"HRV","ctr-lon":16.37241,"ctr-lat":45.805799,"continent":"Europe"}},{"type":"Polygon","arcs":[[-508,-413,-458,-465,513]],"id":"SVN","properties":{"rm-id":"SVN","name":"슬로베니아","name-en":"Slovenia","iso-a2":"SI","iso-a3":"SVN","ctr-lon":14.915312,"ctr-lat":46.06076,"continent":"Europe"}},{"type":"Polygon","arcs":[[514,515]],"id":"QAT","properties":{"rm-id":"QAT","name":"카타르","name-en":"Qatar","iso-a2":"QA","iso-a3":"QAT","ctr-lon":51.143509,"ctr-lat":25.237383,"continent":"Asia"}},{"type":"Polygon","arcs":[[516,517,-460,518,519,520,-252,-349,521,-515]],"id":"SAU","properties":{"rm-id":"SAU","name":"사우디아라비아","name-en":"Saudi Arabia","iso-a2":"SA","iso-a3":"SAU","ctr-lon":44.6996,"ctr-lat":23.806908,"continent":"Asia"}},{"type":"Polygon","arcs":[[-235,-244,522]],"id":"BWA","properties":{"rm-id":"BWA","name":"보츠와나","name-en":"Botswana","iso-a2":"BW","iso-a3":"BWA","ctr-lon":24.179216,"ctr-lat":-22.102634,"continent":"Africa"}},{"type":"Polygon","arcs":[[-523,-243,523,-429]],"id":"ZWE","properties":{"rm-id":"ZWE","name":"짐바브웨","name-en":"Zimbabwe","iso-a2":"ZW","iso-a3":"ZWE","ctr-lon":29.925444,"ctr-lat":-18.91164,"continent":"Africa"}},{"type":"Polygon","arcs":[[-112,524,-473,525,-86,526]],"id":"PAK","properties":{"rm-id":"PAK","name":"파키스탄","name-en":"Pakistan","iso-a2":"PK","iso-a3":"PAK","ctr-lon":68.545632,"ctr-lat":29.328389,"continent":"Asia"}},{"type":"Polygon","arcs":[[-380,527,-408,-486,-361,-425]],"id":"BGR","properties":{"rm-id":"BGR","name":"불가리아","name-en":"Bulgaria","iso-a2":"BG","iso-a3":"BGR","ctr-lon":25.15709,"ctr-lat":42.508785,"continent":"Europe"}},{"type":"Polygon","arcs":[[-345,-392,528,529,-40,530]],"id":"THA","properties":{"rm-id":"THA","name":"태국","name-en":"Thailand","iso-a2":"TH","iso-a3":"THA","ctr-lon":101.073198,"ctr-lat":15.45974,"continent":"Asia"}},{"type":"Polygon","arcs":[[-467]],"id":"SMR","properties":{"rm-id":"SMR","name":"산마리노","name-en":"San Marino","iso-a2":"SM","iso-a3":"SMR","ctr-lon":12.441206,"ctr-lat":43.933916,"continent":"Europe"}},{"type":"Polygon","arcs":[[531,532]],"id":"HTI","properties":{"rm-id":"HTI","name":"아이티","name-en":"Haiti","iso-a2":"HT","iso-a3":"HTI","ctr-lon":-72.224051,"ctr-lat":19.263784,"continent":"North America"}},{"type":"Polygon","arcs":[[-533,533]],"id":"DOM","properties":{"rm-id":"DOM","name":"도미니카 공화국","name-en":"Dominican Republic","iso-a2":"DO","iso-a3":"DOM","ctr-lon":-70.653998,"ctr-lat":19.104137,"continent":"North America"}},{"type":"Polygon","arcs":[[534,-442,-450,-400,535,-500]],"id":"TCD","properties":{"rm-id":"TCD","name":"차드","name-en":"Chad","iso-a2":"TD","iso-a3":"TCD","ctr-lon":18.645041,"ctr-lat":15.142959,"continent":"Africa"}},{"type":"Polygon","arcs":[[-461,-518,536]],"id":"KWT","properties":{"rm-id":"KWT","name":"쿠웨이트","name-en":"Kuwait","iso-a2":"KW","iso-a3":"KWT","ctr-lon":47.313999,"ctr-lat":29.413628,"continent":"Asia"}},{"type":"Polygon","arcs":[[537,538,539]],"id":"SLV","properties":{"rm-id":"SLV","name":"엘살바도르","name-en":"El Salvador","iso-a2":"SV","iso-a3":"SLV","ctr-lon":-88.890124,"ctr-lat":13.685371,"continent":"North America"}},{"type":"Polygon","arcs":[[540,541,542,543,544,-540]],"id":"GTM","properties":{"rm-id":"GTM","name":"과테말라","name-en":"Guatemala","iso-a2":"GT","iso-a3":"GTM","ctr-lon":-90.497134,"ctr-lat":14.982133,"continent":"North America"}},{"type":"MultiPolygon","arcs":[[[545,-1]],[[-3,546]]],"id":"TLS","properties":{"rm-id":"TLS","name":"동티모르","name-en":"East Timor","iso-a2":"TL","iso-a3":"TLS","ctr-lon":125.854679,"ctr-lat":-8.803705,"continent":"Asia"}},{"type":"Polygon","arcs":[[547,-42]],"id":"BRN","properties":{"rm-id":"BRN","name":"브루나이","name-en":"Brunei","iso-a2":"BN","iso-a3":"BRN","ctr-lon":114.551943,"ctr-lat":4.448298,"continent":"Asia"}},{"type":"Polygon","arcs":[[-171,548]],"id":"MCO","properties":{"rm-id":"MCO","name":"모나코","name-en":"Monaco","iso-a2":"MC","iso-a3":"MCO","ctr-lon":7.398291,"ctr-lat":43.739652,"continent":"Europe"}},{"type":"Polygon","arcs":[[-490,549,-398,-405,550,-193,-197,551]],"id":"DZA","properties":{"rm-id":"DZA","name":"알제리","name-en":"Algeria","iso-a2":"DZ","iso-a3":"DZA","ctr-lon":2.808241,"ctr-lat":27.397406,"continent":"Africa"}},{"type":"Polygon","arcs":[[-240,552,-150,-149,-430,-524,-242,553]],"id":"MOZ","properties":{"rm-id":"MOZ","name":"모잠비크","name-en":"Mozambique","iso-a2":"MZ","iso-a3":"MOZ","ctr-lon":37.83789,"ctr-lat":-13.94323,"continent":"Africa"}},{"type":"Polygon","arcs":[[-241,-554]],"id":"SWZ","properties":{"rm-id":"SWZ","name":"에스와티니","name-en":"Eswatini","iso-a2":"SZ","iso-a3":"SWZ","ctr-lon":31.467264,"ctr-lat":-26.533676,"continent":"Africa"}},{"type":"Polygon","arcs":[[554,-215,-154]],"id":"BDI","properties":{"rm-id":"BDI","name":"부룬디","name-en":"Burundi","iso-a2":"BI","iso-a3":"BDI","ctr-lon":29.917086,"ctr-lat":-3.332836,"continent":"Africa"}},{"type":"Polygon","arcs":[[-555,-153,555,-216]],"id":"RWA","properties":{"rm-id":"RWA","name":"르완다","name-en":"Rwanda","iso-a2":"RW","iso-a3":"RWA","ctr-lon":30.103894,"ctr-lat":-1.897196,"continent":"Africa"}},{"type":"Polygon","arcs":[[556,557,-529,-391,-98,-89]],"id":"MMR","properties":{"rm-id":"MMR","name":"미얀마","name-en":"Myanmar","iso-a2":"MM","iso-a3":"MMR","ctr-lon":95.804497,"ctr-lat":21.573855,"continent":"Asia"}},{"type":"Polygon","arcs":[[-88,558,-557]],"id":"BGD","properties":{"rm-id":"BGD","name":"방글라데시","name-en":"Bangladesh","iso-a2":"BD","iso-a3":"BGD","ctr-lon":89.684963,"ctr-lat":24.214956,"continent":"Asia"}},{"type":"Polygon","arcs":[[-168,-388]],"id":"AND","properties":{"rm-id":"AND","name":"안도라","name-en":"Andorra","iso-a2":"AD","iso-a3":"AND","ctr-lon":1.539409,"ctr-lat":42.547643,"continent":"Europe"}},{"type":"Polygon","arcs":[[-111,-264,-258,559,-474,-525]],"id":"AFG","properties":{"rm-id":"AFG","name":"아프가니스탄","name-en":"Afghanistan","iso-a2":"AF","iso-a3":"AFG","ctr-lon":66.496586,"ctr-lat":34.164262,"continent":"Asia"}},{"type":"Polygon","arcs":[[560,-365,-375,-485,561,-513]],"id":"MNE","properties":{"rm-id":"MNE","name":"몬테네그로","name-en":"Montenegro","iso-a2":"ME","iso-a3":"MNE","ctr-lon":19.143727,"ctr-lat":42.803101,"continent":"Europe"}},{"type":"Polygon","arcs":[[-511,-562,-484,-510,562]],"id":"BIH","properties":{"rm-id":"BIH","name":"보스니아 헤르체고비나","name-en":"Bosnia and Herzegovina","iso-a2":"BA","iso-a3":"BIH","ctr-lon":18.06841,"ctr-lat":44.091051,"continent":"Europe"}},{"type":"Polygon","arcs":[[-152,-144,-139,-217,-556]],"id":"UGA","properties":{"rm-id":"UGA","name":"우간다","name-en":"Uganda","iso-a2":"UG","iso-a3":"UGA","ctr-lon":32.948555,"ctr-lat":1.972589,"continent":"Africa"}},{"type":"Polygon","arcs":[[563,564]],"id":"USG","properties":{"rm-id":"USG","name":"관타나모만 해군 기지","name-en":"Guantanamo Bay Naval Base","iso-a2":"-99","iso-a3":"-99","ctr-lon":-75.117277,"ctr-lat":19.918398,"continent":"North America"}},{"type":"MultiPolygon","arcs":[[[565,-564]],[[566]]],"id":"CUB","properties":{"rm-id":"CUB","name":"쿠바","name-en":"Cuba","iso-a2":"CU","iso-a3":"CUB","ctr-lon":-77.975855,"ctr-lat":21.334024,"continent":"North America"}},{"type":"Polygon","arcs":[[-539,567,-203,568,-541]],"id":"HND","properties":{"rm-id":"HND","name":"온두라스","name-en":"Honduras","iso-a2":"HN","iso-a3":"HND","ctr-lon":-86.887604,"ctr-lat":14.794801,"continent":"North America"}},{"type":"MultiPolygon","arcs":[[[569,-65,570]],[[571]]],"id":"ECU","properties":{"rm-id":"ECU","name":"에콰도르","name-en":"Ecuador","iso-a2":"EC","iso-a3":"ECU","ctr-lon":-78.188375,"ctr-lat":-1.259076,"continent":"South America"}},{"type":"Polygon","arcs":[[-571,-64,-273,572,573,574,575]],"id":"COL","properties":{"rm-id":"COL","name":"콜롬비아","name-en":"Colombia","iso-a2":"CO","iso-a3":"COL","ctr-lon":-73.174347,"ctr-lat":3.373111,"continent":"South America"}},{"type":"Polygon","arcs":[[-71,-274,-60]],"id":"PRY","properties":{"rm-id":"PRY","name":"파라과이","name-en":"Paraguay","iso-a2":"PY","iso-a3":"PRY","ctr-lon":-60.146394,"ctr-lat":-21.674509,"continent":"South America"}},{"type":"Polygon","arcs":[[-384,576]],"id":"PRT","properties":{"rm-id":"PRT","name":"포르투갈","name-en":"Portugal","iso-a2":"PT","iso-a3":"PRT","ctr-lon":-8.271754,"ctr-lat":39.606675,"continent":"Europe"}},{"type":"Polygon","arcs":[[-410,-224]],"id":"MDA","properties":{"rm-id":"MDA","name":"몰도바","name-en":"Moldova","iso-a2":"MD","iso-a3":"MDA","ctr-lon":28.487904,"ctr-lat":47.434999,"continent":"Europe"}},{"type":"Polygon","arcs":[[-560,-257,-262,577,-475]],"id":"TKM","properties":{"rm-id":"TKM","name":"투르크메니스탄","name-en":"Turkmenistan","iso-a2":"TM","iso-a3":"TKM","ctr-lon":58.676647,"ctr-lat":39.855246,"continent":"Asia"}},{"type":"Polygon","arcs":[[-119,-126,-117,578,-519,-459,-157]],"id":"JOR","properties":{"rm-id":"JOR","name":"요르단","name-en":"Jordan","iso-a2":"JO","iso-a3":"JOR","ctr-lon":36.375991,"ctr-lat":30.805025,"continent":"Asia"}},{"type":"Polygon","arcs":[[-96,-93]],"id":"NPL","properties":{"rm-id":"NPL","name":"네팔","name-en":"Nepal","iso-a2":"NP","iso-a3":"NPL","ctr-lon":83.639914,"ctr-lat":28.297925,"continent":"Asia"}},{"type":"Polygon","arcs":[[-245]],"id":"LSO","properties":{"rm-id":"LSO","name":"레소토","name-en":"Lesotho","iso-a2":"LS","iso-a3":"LSO","ctr-lon":28.246639,"ctr-lat":-29.480158,"continent":"Africa"}},{"type":"Polygon","arcs":[[579,-206,-443,-535,-499,580,581]],"id":"CMR","properties":{"rm-id":"CMR","name":"카메룬","name-en":"Cameroon","iso-a2":"CM","iso-a3":"CMR","ctr-lon":12.473488,"ctr-lat":4.585041,"continent":"Africa"}},{"type":"Polygon","arcs":[[-580,582,583,-207]],"id":"GAB","properties":{"rm-id":"GAB","name":"가봉","name-en":"Gabon","iso-a2":"GA","iso-a3":"GAB","ctr-lon":11.835939,"ctr-lat":-0.437739,"continent":"Africa"}},{"type":"Polygon","arcs":[[-501,-536,-399,-550,-489,584,-502]],"id":"NER","properties":{"rm-id":"NER","name":"니제르","name-en":"Niger","iso-a2":"NE","iso-a3":"NER","ctr-lon":9.504356,"ctr-lat":17.446195,"continent":"Africa"}},{"type":"Polygon","arcs":[[-585,-488,-481,585,586,-503]],"id":"BFA","properties":{"rm-id":"BFA","name":"부르키나파소","name-en":"Burkina Faso","iso-a2":"BF","iso-a3":"BFA","ctr-lon":-1.36388,"ctr-lat":12.673048,"continent":"Africa"}},{"type":"Polygon","arcs":[[587,588,-504,-587]],"id":"TGO","properties":{"rm-id":"TGO","name":"토고","name-en":"Togo","iso-a2":"TG","iso-a3":"TGO","ctr-lon":1.058113,"ctr-lat":8.80722,"continent":"Africa"}},{"type":"Polygon","arcs":[[-586,-480,589,-588]],"id":"GHA","properties":{"rm-id":"GHA","name":"가나","name-en":"Ghana","iso-a2":"GH","iso-a3":"GHA","ctr-lon":-1.036941,"ctr-lat":7.717639,"continent":"Africa"}},{"type":"Polygon","arcs":[[-496,590,-438]],"id":"GNB","properties":{"rm-id":"GNB","name":"기니비사우","name-en":"Guinea-Bissau","iso-a2":"GW","iso-a3":"GNB","ctr-lon":-14.52413,"ctr-lat":12.163712,"continent":"Africa"}},{"type":"Polygon","arcs":[[591,-386]],"id":"GIB","properties":{"rm-id":"GIB","name":"지브롤터","name-en":"Gibraltar","iso-a2":"GI","iso-a3":"GIB","ctr-lon":-5.3467,"ctr-lat":36.129426,"continent":"Europe"}},{"type":"MultiPolygon","arcs":[[[592,593,594,595,596]],[[597,598]],[[599]],[[600]],[[601]],[[602]],[[603]],[[604]],[[605]],[[606]],[[607]],[[608]],[[609]],[[610]],[[611]],[[612]],[[613]]],"id":"USA","properties":{"rm-id":"USA","name":"미국","name-en":"United States of America","iso-a2":"US","iso-a3":"USA","ctr-lon":-97.482602,"ctr-lat":39.538479,"continent":"North America"}},{"type":"MultiPolygon","arcs":[[[-597,614,-599,615]],[[616,-596]],[[617]],[[618]],[[619]],[[620]],[[621]],[[622]],[[623]],[[624]],[[625]],[[626]],[[627]],[[628]],[[629]],[[630]],[[631]],[[632]],[[633]],[[634]],[[635]],[[636]],[[637]],[[638]],[[639]],[[640]],[[641]],[[642]],[[643]],[[644]],[[645]],[[646]],[[647]],[[648]]],"id":"CAN","properties":{"rm-id":"CAN","name":"캐나다","name-en":"Canada","iso-a2":"CA","iso-a3":"CAN","ctr-lon":-101.9107,"ctr-lat":60.324287,"continent":"North America"}},{"type":"Polygon","arcs":[[-594,649,-544,650,651]],"id":"MEX","properties":{"rm-id":"MEX","name":"멕시코","name-en":"Mexico","iso-a2":"MX","iso-a3":"MEX","ctr-lon":-102.289448,"ctr-lat":23.919988,"continent":"North America"}},{"type":"Polygon","arcs":[[-543,652,-651]],"id":"BLZ","properties":{"rm-id":"BLZ","name":"벨리즈","name-en":"Belize","iso-a2":"BZ","iso-a3":"BLZ","ctr-lon":-88.712962,"ctr-lat":17.202068,"continent":"North America"}},{"type":"Polygon","arcs":[[-200,653,-575,654]],"id":"PAN","properties":{"rm-id":"PAN","name":"파나마","name-en":"Panama","iso-a2":"PA","iso-a3":"PAN","ctr-lon":-80.352106,"ctr-lat":8.72198,"continent":"North America"}},{"type":"Polygon","arcs":[[655,-573,-272,-184]],"id":"VEN","properties":{"rm-id":"VEN","name":"베네수엘라","name-en":"Venezuela","iso-a2":"VE","iso-a3":"VEN","ctr-lon":-64.599381,"ctr-lat":7.182476,"continent":"South America"}},{"type":"MultiPolygon","arcs":[[[-8,656]],[[657]],[[658]],[[659]],[[660]]],"id":"PNG","properties":{"rm-id":"PNG","name":"파푸아뉴기니","name-en":"Papua New Guinea","iso-a2":"PG","iso-a3":"PNG","ctr-lon":143.910216,"ctr-lat":-5.695285,"continent":"Oceania"}},{"type":"Polygon","arcs":[[-125,661,-402,-449,662,-447,663,-115]],"id":"EGY","properties":{"rm-id":"EGY","name":"이집트","name-en":"Egypt","iso-a2":"EG","iso-a3":"EGY","ctr-lon":29.445837,"ctr-lat":26.186173,"continent":"Africa"}},{"type":"MultiPolygon","arcs":[[[-521,664,-253]],[[665]]],"id":"YEM","properties":{"rm-id":"YEM","name":"예멘","name-en":"Yemen","iso-a2":"YE","iso-a3":"YEM","ctr-lon":45.874383,"ctr-lat":15.328226,"continent":"Asia"}},{"type":"Polygon","arcs":[[-196,666,-492,-491,-552]],"id":"MRT","properties":{"rm-id":"MRT","name":"모리타니","name-en":"Mauritania","iso-a2":"MR","iso-a3":"MRT","ctr-lon":-9.740299,"ctr-lat":19.587062,"continent":"Africa"}},{"type":"MultiPolygon","arcs":[[[667,-583,-582]],[[668]]],"id":"GNQ","properties":{"rm-id":"GNQ","name":"적도 기니","name-en":"Equatorial Guinea","iso-a2":"GQ","iso-a3":"GNQ","ctr-lon":8.9902,"ctr-lat":2.333,"continent":"Africa"}},{"type":"Polygon","arcs":[[-494,669]],"id":"GMB","properties":{"rm-id":"GMB","name":"감비아","name-en":"The Gambia","iso-a2":"GM","iso-a3":"GMB","ctr-lon":-14.998318,"ctr-lat":13.641721,"continent":"Africa"}},{"type":"Polygon","arcs":[[-102,670]],"id":"HKG","properties":{"rm-id":"HKG","name":"홍콩","name-en":"Hong Kong","iso-a2":"HK","iso-a3":"HKG","ctr-lon":114.097769,"ctr-lat":22.448829,"continent":"Asia"}},{"type":"Polygon","arcs":[[-468]],"id":"VAT","properties":{"rm-id":"VAT","name":"바티칸 시국","name-en":"Vatican City","iso-a2":"VA","iso-a3":"VAT","ctr-lon":12.453418,"ctr-lat":41.903323,"continent":"Europe"}},{"type":"Polygon","arcs":[[671,672,-76,673]],"id":"CYN","properties":{"rm-id":"CYN","name":"북키프로스","name-en":"Turkish Republic of Northern Cyprus","iso-a2":"-99","iso-a3":"-99","ctr-lon":33.692434,"ctr-lat":35.216071,"continent":"Asia"}},{"type":"MultiPolygon","arcs":[[[-75,-84,674,-674]],[[-673,675,-79,-77]]],"id":"CNM","properties":{"rm-id":"CNM","name":"유엔 키프로스 완충 지대","name-en":"United Nations Buffer Zone in Cyprus","iso-a2":"-99","iso-a3":"-99","ctr-lon":33.288134,"ctr-lat":35.140713,"continent":"Asia"}},{"type":"Polygon","arcs":[[-85,-113,-527]],"id":"KAS","properties":{"rm-id":"KAS","name":"시아첸 빙하","name-en":"Siachen Glacier","iso-a2":"-99","iso-a3":"-99","ctr-lon":77.129553,"ctr-lat":35.340606,"continent":"Asia"}},{"type":"Polygon","arcs":[[-81,676]],"id":"WSB","properties":{"rm-id":"WSB","name":"아크로티리","name-en":"Akrotiri Sovereign Base Area","iso-a2":"-99","iso-a3":"-99","ctr-lon":32.979025,"ctr-lat":34.60083,"continent":"Asia"}},{"type":"Polygon","arcs":[[-67,-48]],"id":"SPI","properties":{"rm-id":"SPI","name":"사우던 파타고니안 아이스 필드","name-en":"Southern Patagonian Ice Field","iso-a2":"-99","iso-a3":"-99","ctr-lon":-73.31378,"ctr-lat":-49.511034,"continent":"South America"}},{"type":"Polygon","arcs":[[-448,-663]],"id":"BRT","properties":{"rm-id":"BRT","name":"비르 타윌","name-en":"Bir Tawil","iso-a2":"-99","iso-a3":"-99","ctr-lon":33.673428,"ctr-lat":21.860442,"continent":"Africa"}},{"type":"MultiPolygon","arcs":[[[677]],[[678]],[[679]],[[680]],[[681]],[[682]],[[683]],[[684]],[[685]],[[686]],[[687]],[[688]],[[689]],[[690]],[[691]],[[692]],[[693]]],"id":"ATA","properties":{"rm-id":"ATA","name":"남극","name-en":"Antarctica","iso-a2":"AQ","iso-a3":"ATA","ctr-lon":35.885455,"ctr-lat":-79.843222,"continent":"Antarctica"}},{"type":"MultiPolygon","arcs":[[[694]],[[695]],[[696]],[[697]],[[698]]],"id":"AUS","properties":{"rm-id":"AUS","name":"오스트레일리아","name-en":"Australia","iso-a2":"AU","iso-a3":"AUS","ctr-lon":134.04972,"ctr-lat":-24.129522,"continent":"Oceania"}},{"type":"MultiPolygon","arcs":[[[699]],[[700]],[[701]],[[702]]],"id":"GRL","properties":{"rm-id":"GRL","name":"그린란드","name-en":"Greenland","iso-a2":"GL","iso-a3":"GRL","ctr-lon":-39.335251,"ctr-lat":74.319387,"continent":"North America"}},{"type":"MultiPolygon","arcs":[[[703]],[[704]]],"id":"FJI","properties":{"rm-id":"FJI","name":"피지","name-en":"Fiji","iso-a2":"FJ","iso-a3":"FJI","ctr-lon":177.975427,"ctr-lat":-17.826099,"continent":"Oceania"}},{"type":"MultiPolygon","arcs":[[[705]],[[706]]],"id":"NZL","properties":{"rm-id":"NZL","name":"뉴질랜드","name-en":"New Zealand","iso-a2":"NZ","iso-a3":"NZL","ctr-lon":172.787,"ctr-lat":-39.759,"continent":"Oceania"}},{"type":"Polygon","arcs":[[707]],"id":"NCL","properties":{"rm-id":"NCL","name":"누벨칼레도니","name-en":"New Caledonia","iso-a2":"NC","iso-a3":"NCL","ctr-lon":165.084004,"ctr-lat":-21.064697,"continent":"Oceania"}},{"type":"Polygon","arcs":[[708]],"id":"MDG","properties":{"rm-id":"MDG","name":"마다가스카르","name-en":"Madagascar","iso-a2":"MG","iso-a3":"MDG","ctr-lon":46.704241,"ctr-lat":-18.628288,"continent":"Africa"}},{"type":"MultiPolygon","arcs":[[[709]],[[710]],[[711]],[[712]],[[713]],[[714]],[[715]],[[716]],[[717]],[[718]],[[719]]],"id":"PHL","properties":{"rm-id":"PHL","name":"필리핀","name-en":"Philippines","iso-a2":"PH","iso-a3":"PHL","ctr-lon":122.465,"ctr-lat":11.198,"continent":"Asia"}},{"type":"Polygon","arcs":[[720]],"id":"LKA","properties":{"rm-id":"LKA","name":"스리랑카","name-en":"Sri Lanka","iso-a2":"LK","iso-a3":"LKA","ctr-lon":80.704823,"ctr-lat":7.581097,"continent":"Asia"}},{"type":"Polygon","arcs":[[721]],"id":"CUW","properties":{"rm-id":"CUW","name":"퀴라소","name-en":"Curaçao","iso-a2":"CW","iso-a3":"CUW","ctr-lon":-68.920578,"ctr-lat":12.145039,"continent":"North America"}},{"type":"Polygon","arcs":[[722]],"id":"ABW","properties":{"rm-id":"ABW","name":"아루바","name-en":"Aruba","iso-a2":"AW","iso-a3":"ABW","ctr-lon":-69.972795,"ctr-lat":12.5174,"continent":"North America"}},{"type":"MultiPolygon","arcs":[[[723]],[[724]]],"id":"BHS","properties":{"rm-id":"BHS","name":"바하마","name-en":"The Bahamas","iso-a2":"BS","iso-a3":"BHS","ctr-lon":-77.146688,"ctr-lat":26.401789,"continent":"North America"}},{"type":"Polygon","arcs":[[725]],"id":"TCA","properties":{"rm-id":"TCA","name":"터크스 케이커스 제도","name-en":"Turks and Caicos Islands","iso-a2":"TC","iso-a3":"TCA","ctr-lon":-71.752704,"ctr-lat":21.81663,"continent":"North America"}},{"type":"Polygon","arcs":[[726]],"id":"TWN","properties":{"rm-id":"TWN","name":"중화민국","name-en":"Taiwan","iso-a2":"TW","iso-a3":"TWN","ctr-lon":120.868204,"ctr-lat":23.652408,"continent":"Asia"}},{"type":"MultiPolygon","arcs":[[[727]],[[728]],[[729]],[[730]]],"id":"JPN","properties":{"rm-id":"JPN","name":"일본","name-en":"Japan","iso-a2":"JP","iso-a3":"JPN","ctr-lon":138.44217,"ctr-lat":36.142538,"continent":"Asia"}},{"type":"Polygon","arcs":[[731]],"id":"SPM","properties":{"rm-id":"SPM","name":"생피에르 미클롱","name-en":"Saint Pierre and Miquelon","iso-a2":"PM","iso-a3":"SPM","ctr-lon":-56.332352,"ctr-lat":47.040344,"continent":"North America"}},{"type":"Polygon","arcs":[[732]],"id":"ISL","properties":{"rm-id":"ISL","name":"아이슬란드","name-en":"Iceland","iso-a2":"IS","iso-a3":"ISL","ctr-lon":-18.673711,"ctr-lat":64.779286,"continent":"Europe"}},{"type":"Polygon","arcs":[[733]],"id":"PCN","properties":{"rm-id":"PCN","name":"핏케언 제도","name-en":"Pitcairn Islands","iso-a2":"PN","iso-a3":"PCN","ctr-lon":-128.317536,"ctr-lat":-24.364576,"continent":"Oceania"}},{"type":"Polygon","arcs":[[734]],"id":"PYF","properties":{"rm-id":"PYF","name":"프랑스령 폴리네시아","name-en":"French Polynesia","iso-a2":"PF","iso-a3":"PYF","ctr-lon":-149.46157,"ctr-lat":-17.628081,"continent":"Oceania"}},{"type":"Polygon","arcs":[[735]],"id":"ATF","properties":{"rm-id":"ATF","name":"프랑스령 남방 및 남극","name-en":"French Southern and Antarctic Lands","iso-a2":"TF","iso-a3":"ATF","ctr-lon":69.122136,"ctr-lat":-49.303721,"continent":"Seven seas (open ocean)"}},{"type":"Polygon","arcs":[[736]],"id":"SYC","properties":{"rm-id":"SYC","name":"세이셸","name-en":"Seychelles","iso-a2":"SC","iso-a3":"SYC","ctr-lon":55.480175,"ctr-lat":-4.676659,"continent":"Seven seas (open ocean)"}},{"type":"Polygon","arcs":[[737]],"id":"KIR","properties":{"rm-id":"KIR","name":"키리바시","name-en":"Kiribati","iso-a2":"KI","iso-a3":"KIR","ctr-lon":-157.384577,"ctr-lat":1.820437,"continent":"Oceania"}},{"type":"Polygon","arcs":[[738]],"id":"MHL","properties":{"rm-id":"MHL","name":"마셜 제도","name-en":"Marshall Islands","iso-a2":"MH","iso-a3":"MHL","ctr-lon":171.193609,"ctr-lat":7.082568,"continent":"Oceania"}},{"type":"Polygon","arcs":[[739]],"id":"TTO","properties":{"rm-id":"TTO","name":"트리니다드 토바고","name-en":"Trinidad and Tobago","iso-a2":"TT","iso-a3":"TTO","ctr-lon":-60.9184,"ctr-lat":10.9989,"continent":"North America"}},{"type":"Polygon","arcs":[[740]],"id":"GRD","properties":{"rm-id":"GRD","name":"그레나다","name-en":"Grenada","iso-a2":"GD","iso-a3":"GRD","ctr-lon":-61.680461,"ctr-lat":12.113156,"continent":"North America"}},{"type":"Polygon","arcs":[[741]],"id":"VCT","properties":{"rm-id":"VCT","name":"세인트빈센트 그레나딘","name-en":"Saint Vincent and the Grenadines","iso-a2":"VC","iso-a3":"VCT","ctr-lon":-61.3359,"ctr-lat":13.0879,"continent":"North America"}},{"type":"Polygon","arcs":[[742]],"id":"BRB","properties":{"rm-id":"BRB","name":"바베이도스","name-en":"Barbados","iso-a2":"BB","iso-a3":"BRB","ctr-lon":-59.568966,"ctr-lat":13.163709,"continent":"North America"}},{"type":"Polygon","arcs":[[743]],"id":"LCA","properties":{"rm-id":"LCA","name":"세인트루시아","name-en":"Saint Lucia","iso-a2":"LC","iso-a3":"LCA","ctr-lon":-60.980094,"ctr-lat":13.892371,"continent":"North America"}},{"type":"Polygon","arcs":[[744]],"id":"DMA","properties":{"rm-id":"DMA","name":"도미니카 연방","name-en":"Dominica","iso-a2":"DM","iso-a3":"DMA","ctr-lon":-61.344958,"ctr-lat":15.458829,"continent":"North America"}},{"type":"Polygon","arcs":[[745]],"id":"UMI","properties":{"rm-id":"UMI","name":"미국령 군소 제도","name-en":"United States Minor Outlying Islands","iso-a2":"UM","iso-a3":"UMI","ctr-lon":166.644535,"ctr-lat":19.285663,"continent":"North America"}},{"type":"Polygon","arcs":[[746]],"id":"MSR","properties":{"rm-id":"MSR","name":"몬트세랫","name-en":"Montserrat","iso-a2":"MS","iso-a3":"MSR","ctr-lon":-62.188252,"ctr-lat":16.73717,"continent":"North America"}},{"type":"Polygon","arcs":[[747]],"id":"ATG","properties":{"rm-id":"ATG","name":"앤티가 바부다","name-en":"Antigua and Barbuda","iso-a2":"AG","iso-a3":"ATG","ctr-lon":-61.790612,"ctr-lat":17.352249,"continent":"North America"}},{"type":"Polygon","arcs":[[748]],"id":"KNA","properties":{"rm-id":"KNA","name":"세인트키츠 네비스","name-en":"Saint Kitts and Nevis","iso-a2":"KN","iso-a3":"KNA","ctr-lon":-62.757975,"ctr-lat":17.336558,"continent":"North America"}},{"type":"Polygon","arcs":[[749]],"id":"VIR","properties":{"rm-id":"VIR","name":"미국령 버진아일랜드","name-en":"United States Virgin Islands","iso-a2":"VI","iso-a3":"VIR","ctr-lon":-64.779172,"ctr-lat":17.746706,"continent":"North America"}},{"type":"Polygon","arcs":[[750]],"id":"BLM","properties":{"rm-id":"BLM","name":"생바르텔레미","name-en":"Saint Barthélemy","iso-a2":"BL","iso-a3":"BLM","ctr-lon":-62.833193,"ctr-lat":17.901987,"continent":"North America"}},{"type":"Polygon","arcs":[[751]],"id":"PRI","properties":{"rm-id":"PRI","name":"푸에르토리코","name-en":"Puerto Rico","iso-a2":"PR","iso-a3":"PRI","ctr-lon":-66.481065,"ctr-lat":18.234668,"continent":"North America"}},{"type":"Polygon","arcs":[[752]],"id":"AIA","properties":{"rm-id":"AIA","name":"앵귈라","name-en":"Anguilla","iso-a2":"AI","iso-a3":"AIA","ctr-lon":-63.026361,"ctr-lat":18.242979,"continent":"North America"}},{"type":"Polygon","arcs":[[753]],"id":"VGB","properties":{"rm-id":"VGB","name":"영국령 버진아일랜드","name-en":"British Virgin Islands","iso-a2":"VG","iso-a3":"VGB","ctr-lon":-64.63661,"ctr-lat":18.426606,"continent":"North America"}},{"type":"Polygon","arcs":[[754]],"id":"JAM","properties":{"rm-id":"JAM","name":"자메이카","name-en":"Jamaica","iso-a2":"JM","iso-a3":"JAM","ctr-lon":-77.318767,"ctr-lat":18.137124,"continent":"North America"}},{"type":"Polygon","arcs":[[755]],"id":"CYM","properties":{"rm-id":"CYM","name":"케이맨 제도","name-en":"Cayman Islands","iso-a2":"KY","iso-a3":"CYM","ctr-lon":-81.24055,"ctr-lat":19.319862,"continent":"North America"}},{"type":"Polygon","arcs":[[756]],"id":"BMU","properties":{"rm-id":"BMU","name":"버뮤다","name-en":"Bermuda","iso-a2":"BM","iso-a3":"BMU","ctr-lon":-64.763573,"ctr-lat":32.296592,"continent":"North America"}},{"type":"Polygon","arcs":[[757]],"id":"HMD","properties":{"rm-id":"HMD","name":"허드 맥도널드 제도","name-en":"Heard Island and McDonald Islands","iso-a2":"HM","iso-a3":"HMD","ctr-lon":73.50521,"ctr-lat":-53.103462,"continent":"Seven seas (open ocean)"}},{"type":"Polygon","arcs":[[758]],"id":"SHN","properties":{"rm-id":"SHN","name":"세인트헬레나","name-en":"Saint Helena","iso-a2":"SH","iso-a3":"SHN","ctr-lon":-5.71262,"ctr-lat":-15.950487,"continent":"Seven seas (open ocean)"}},{"type":"Polygon","arcs":[[759]],"id":"MUS","properties":{"rm-id":"MUS","name":"모리셔스","name-en":"Mauritius","iso-a2":"MU","iso-a3":"MUS","ctr-lon":57.565848,"ctr-lat":-20.299506,"continent":"Seven seas (open ocean)"}},{"type":"Polygon","arcs":[[760]],"id":"COM","properties":{"rm-id":"COM","name":"코모로","name-en":"Comoros","iso-a2":"KM","iso-a3":"COM","ctr-lon":43.318094,"ctr-lat":-11.727683,"continent":"Africa"}},{"type":"Polygon","arcs":[[761]],"id":"STP","properties":{"rm-id":"STP","name":"상투메 프린시페","name-en":"São Tomé and Príncipe","iso-a2":"ST","iso-a3":"STP","ctr-lon":7.021,"ctr-lat":0.9709,"continent":"Africa"}},{"type":"Polygon","arcs":[[762]],"id":"CPV","properties":{"rm-id":"CPV","name":"카보베르데","name-en":"Cape Verde","iso-a2":"CV","iso-a3":"CPV","ctr-lon":-23.639434,"ctr-lat":15.074761,"continent":"Africa"}},{"type":"Polygon","arcs":[[763]],"id":"MLT","properties":{"rm-id":"MLT","name":"몰타","name-en":"Malta","iso-a2":"MT","iso-a3":"MLT","ctr-lon":14.433005,"ctr-lat":35.892886,"continent":"Europe"}},{"type":"Polygon","arcs":[[764]],"id":"JEY","properties":{"rm-id":"JEY","name":"저지섬","name-en":"Jersey","iso-a2":"JE","iso-a3":"JEY","ctr-lon":-2.090146,"ctr-lat":49.220808,"continent":"Europe"}},{"type":"Polygon","arcs":[[765]],"id":"GGY","properties":{"rm-id":"GGY","name":"건지섬","name-en":"Guernsey","iso-a2":"GG","iso-a3":"GGY","ctr-lon":-2.561736,"ctr-lat":49.463533,"continent":"Europe"}},{"type":"Polygon","arcs":[[766]],"id":"IMN","properties":{"rm-id":"IMN","name":"맨섬","name-en":"Isle of Man","iso-a2":"IM","iso-a3":"IMN","ctr-lon":-4.530069,"ctr-lat":54.220833,"continent":"Europe"}},{"type":"Polygon","arcs":[[767]],"id":"ALD","properties":{"rm-id":"ALD","name":"올란드 제도","name-en":"Åland","iso-a2":"AX","iso-a3":"ALA","ctr-lon":19.869671,"ctr-lat":60.156467,"continent":"Europe"}},{"type":"Polygon","arcs":[[768]],"id":"FRO","properties":{"rm-id":"FRO","name":"페로 제도","name-en":"Faroe Islands","iso-a2":"FO","iso-a3":"FRO","ctr-lon":-7.058429,"ctr-lat":62.185604,"continent":"Europe"}},{"type":"Polygon","arcs":[[769]],"id":"IOA","properties":{"rm-id":"IOA","name":"호주령 인도양 지역","name-en":"Australian Indian Ocean Territories","iso-a2":"-99","iso-a3":"-99","ctr-lon":105.67259,"ctr-lat":-10.490789,"continent":"Asia"}},{"type":"Polygon","arcs":[[770]],"id":"IOT","properties":{"rm-id":"IOT","name":"영국령 인도양 지역","name-en":"British Indian Ocean Territory","iso-a2":"IO","iso-a3":"IOT","ctr-lon":71.348349,"ctr-lat":-6.190826,"continent":"Seven seas (open ocean)"}},{"type":"Polygon","arcs":[[771]],"id":"SGP","properties":{"rm-id":"SGP","name":"싱가포르","name-en":"Singapore","iso-a2":"SG","iso-a3":"SGP","ctr-lon":103.816925,"ctr-lat":1.366587,"continent":"Asia"}},{"type":"Polygon","arcs":[[772]],"id":"NFK","properties":{"rm-id":"NFK","name":"노퍽섬","name-en":"Norfolk Island","iso-a2":"NF","iso-a3":"NFK","ctr-lon":167.954531,"ctr-lat":-29.033042,"continent":"Oceania"}},{"type":"Polygon","arcs":[[773]],"id":"COK","properties":{"rm-id":"COK","name":"쿡 제도","name-en":"Cook Islands","iso-a2":"CK","iso-a3":"COK","ctr-lon":-159.785675,"ctr-lat":-21.215993,"continent":"Oceania"}},{"type":"Polygon","arcs":[[774]],"id":"TON","properties":{"rm-id":"TON","name":"통가","name-en":"Tonga","iso-a2":"TO","iso-a3":"TON","ctr-lon":-175.163014,"ctr-lat":-21.210026,"continent":"Oceania"}},{"type":"Polygon","arcs":[[775]],"id":"WLF","properties":{"rm-id":"WLF","name":"왈리스 푸투나","name-en":"Wallis and Futuna","iso-a2":"WF","iso-a3":"WLF","ctr-lon":-178.137436,"ctr-lat":-14.286415,"continent":"Oceania"}},{"type":"Polygon","arcs":[[776]],"id":"WSM","properties":{"rm-id":"WSM","name":"사모아","name-en":"Samoa","iso-a2":"WS","iso-a3":"WSM","ctr-lon":-172.438241,"ctr-lat":-13.639139,"continent":"Oceania"}},{"type":"MultiPolygon","arcs":[[[777]],[[778]],[[779]],[[780]]],"id":"SLB","properties":{"rm-id":"SLB","name":"솔로몬 제도","name-en":"Solomon Islands","iso-a2":"SB","iso-a3":"SLB","ctr-lon":159.170468,"ctr-lat":-8.029548,"continent":"Oceania"}},{"type":"Polygon","arcs":[[781]],"id":"TUV","properties":{"rm-id":"TUV","name":"투발루","name-en":"Tuvalu","iso-a2":"TV","iso-a3":"TUV","ctr-lon":179.209587,"ctr-lat":-8.513717,"continent":"Oceania"}},{"type":"Polygon","arcs":[[782]],"id":"MDV","properties":{"rm-id":"MDV","name":"몰디브","name-en":"Maldives","iso-a2":"MV","iso-a3":"MDV","ctr-lon":73.507554,"ctr-lat":4.174441,"continent":"Seven seas (open ocean)"}},{"type":"Polygon","arcs":[[783]],"id":"NRU","properties":{"rm-id":"NRU","name":"나우루","name-en":"Nauru","iso-a2":"NR","iso-a3":"NRU","ctr-lon":166.932644,"ctr-lat":-0.520261,"continent":"Oceania"}},{"type":"Polygon","arcs":[[784]],"id":"FSM","properties":{"rm-id":"FSM","name":"미크로네시아 연방","name-en":"Federated States of Micronesia","iso-a2":"FM","iso-a3":"FSM","ctr-lon":158.234019,"ctr-lat":6.887553,"continent":"Oceania"}},{"type":"Polygon","arcs":[[785]],"id":"SGS","properties":{"rm-id":"SGS","name":"사우스조지아 사우스샌드위치 제도","name-en":"South Georgia and the South Sandwich Islands","iso-a2":"GS","iso-a3":"SGS","ctr-lon":-31.063179,"ctr-lat":-55.683402,"continent":"Seven seas (open ocean)"}},{"type":"MultiPolygon","arcs":[[[786]],[[787]]],"id":"FLK","properties":{"rm-id":"FLK","name":"포클랜드 제도","name-en":"Falkland Islands","iso-a2":"FK","iso-a3":"FLK","ctr-lon":-58.738602,"ctr-lat":-51.608913,"continent":"South America"}},{"type":"MultiPolygon","arcs":[[[788]],[[789]]],"id":"VUT","properties":{"rm-id":"VUT","name":"바누아투","name-en":"Vanuatu","iso-a2":"VU","iso-a3":"VUT","ctr-lon":166.908762,"ctr-lat":-15.37153,"continent":"Oceania"}},{"type":"Polygon","arcs":[[790]],"id":"NIU","properties":{"rm-id":"NIU","name":"니우에","name-en":"Niue","iso-a2":"NU","iso-a3":"NIU","ctr-lon":-169.862565,"ctr-lat":-19.045956,"continent":"Oceania"}},{"type":"Polygon","arcs":[[791]],"id":"ASM","properties":{"rm-id":"ASM","name":"아메리칸사모아","name-en":"American Samoa","iso-a2":"AS","iso-a3":"ASM","ctr-lon":-170.747153,"ctr-lat":-14.32671,"continent":"Oceania"}},{"type":"Polygon","arcs":[[792]],"id":"PLW","properties":{"rm-id":"PLW","name":"팔라우","name-en":"Palau","iso-a2":"PW","iso-a3":"PLW","ctr-lon":134.580157,"ctr-lat":7.518252,"continent":"Oceania"}},{"type":"Polygon","arcs":[[793]],"id":"GUM","properties":{"rm-id":"GUM","name":"괌","name-en":"Guam","iso-a2":"GU","iso-a3":"GUM","ctr-lon":144.703614,"ctr-lat":13.354173,"continent":"Oceania"}},{"type":"Polygon","arcs":[[794]],"id":"MNP","properties":{"rm-id":"MNP","name":"북마리아나 제도","name-en":"Northern Mariana Islands","iso-a2":"MP","iso-a3":"MNP","ctr-lon":145.734397,"ctr-lat":15.188188,"continent":"Oceania"}},{"type":"Polygon","arcs":[[795]],"id":"BHR","properties":{"rm-id":"BHR","name":"바레인","name-en":"Bahrain","iso-a2":"BH","iso-a3":"BHR","ctr-lon":50.554816,"ctr-lat":26.055972,"continent":"Asia"}},{"type":"Polygon","arcs":[[796]],"id":"CSI","properties":{"rm-id":"CSI","name":"산호해 제도","name-en":"Coral Sea Islands","iso-a2":"-99","iso-a3":"-99","ctr-lon":154.390595,"ctr-lat":-21.029311,"continent":"Oceania"}},{"type":"Polygon","arcs":[[797]],"id":"PGA","properties":{"rm-id":"PGA","name":"웨이크섬","name-en":"Wake Island","iso-a2":"-99","iso-a3":"-99","ctr-lon":115.81956,"ctr-lat":10.72954,"continent":"Asia"}},{"type":"Polygon","arcs":[[798]],"id":"CLP","properties":{"rm-id":"CLP","name":"클리퍼턴섬","name-en":"Clipperton Island","iso-a2":"-99","iso-a3":"-99","ctr-lon":-109.22045,"ctr-lat":10.297324,"continent":"Seven seas (open ocean)"}},{"type":"Polygon","arcs":[[799]],"id":"MAC","properties":{"rm-id":"MAC","name":"마카오","name-en":"Macau","iso-a2":"MO","iso-a3":"MAC","ctr-lon":113.556038,"ctr-lat":22.129735,"continent":"Asia"}},{"type":"Polygon","arcs":[[800]],"id":"ATC","properties":{"rm-id":"ATC","name":"애시모어 카르티에 제도","name-en":"Ashmore and Cartier Islands","iso-a2":"-99","iso-a3":"-99","ctr-lon":123.586368,"ctr-lat":-12.432571,"continent":"Oceania"}},{"type":"Polygon","arcs":[[801]],"id":"BJN","properties":{"rm-id":"BJN","name":"바호 누에보 뱅크","name-en":"Bajo Nuevo Bank","iso-a2":"-99","iso-a3":"-99","ctr-lon":-79.845836,"ctr-lat":15.791588,"continent":"North America"}},{"type":"Polygon","arcs":[[802]],"id":"SER","properties":{"rm-id":"SER","name":"세라냐 뱅크","name-en":"Serranilla Bank","iso-a2":"-99","iso-a3":"-99","ctr-lon":-78.638239,"ctr-lat":15.864308,"continent":"North America"}},{"type":"Polygon","arcs":[[803]],"id":"SCR","properties":{"rm-id":"SCR","name":"스카버러 암초","name-en":"Scarborough Shoal","iso-a2":"-99","iso-a3":"-99","ctr-lon":117.753812,"ctr-lat":15.152039,"continent":"Asia"}}]}},"arcs":[[[124.4505,-9.1802],[124.3101,-9.4887],[124.03,-9.342]],[[124.03,-9.342],[123.6888,-9.6114],[123.5154,-10.3355],[123.8263,-10.3639],[124.1224,-10.1725],[124.4185,-10.1638],[124.9707,-9.6624],[125.0616,-9.4858]],[[125.0616,-9.4858],[124.9195,-8.962]],[[124.9195,-8.962],[124.4505,-9.1802]],[[117.5671,4.1597],[117.1647,4.3331],[115.8788,4.3521],[115.6469,4.1691],[115.4641,3.0308],[115.0669,2.8282],[115.1265,2.4792],[114.7788,2.2472],[114.832,1.9025],[114.5006,1.436],[113.9097,1.4425],[113.6495,1.2333],[113.0234,1.537],[112.4705,1.5677],[112.1801,1.449],[112.1001,1.1549],[111.8231,1.0085],[111.1976,1.0752],[110.5539,0.8514],[110.2566,1.0391],[109.6773,1.5729],[109.5284,1.89],[109.6453,2.0832]],[[109.6453,2.0832],[109.341,1.9355],[109.096,1.5606],[108.8555,0.8322],[108.9209,0.3403],[109.1668,0.1123],[109.1233,-0.4997],[109.2732,-0.8536],[109.7341,-0.954],[110.0685,-1.4325],[109.9216,-1.7696],[110.075,-1.9225],[110.2632,-3.0029],[110.5081,-2.8746],[110.9065,-3.0833],[111.2962,-2.9365],[111.8325,-3.0616],[111.822,-3.5451],[112.3027,-3.3139],[112.618,-3.4238],[113.1826,-3.0771],[113.6204,-3.1853],[113.7131,-3.4726],[114.1082,-3.3473],[114.6111,-3.6839],[114.7129,-4.1708],[115.9679,-3.6088],[116.3342,-2.9256],[116.3904,-2.589],[116.6033,-2.2242],[116.3249,-1.7039],[116.8198,-1.2614],[117.0237,-1.2029],[117.596,-0.4226],[117.4339,-0.2638],[117.5173,0.291],[117.8113,0.8118],[118.1878,0.8752],[118.7982,0.8049],[119.0029,0.9625],[118.4251,1.4857],[117.9241,1.8192],[117.8599,2.0383],[118.0635,2.3669],[117.6333,2.8122],[117.6172,3.0859],[117.3527,3.1828],[117.2195,3.6474],[117.7485,3.6369],[117.5671,4.1597]],[[140.9745,-2.6005],[140.1047,-2.3201],[139.8648,-2.372],[138.8032,-1.9208],[138.6652,-1.7892],[137.7944,-1.4841],[137.1428,-1.787],[137.2263,-2.0744],[136.7586,-2.2487],[136.4038,-2.2197],[136.2664,-2.5603],[135.9099,-2.9858],[135.4705,-3.3631],[134.9847,-3.3297],[134.7013,-2.9587],[134.6581,-2.5628],[134.1934,-2.3791],[134.0871,-1.6828],[134.282,-1.3502],[133.9772,-0.7232],[133.3916,-0.7232],[132.7092,-0.36],[132.0996,-0.4699],[131.8843,-0.6819],[131.243,-0.8194],[131.2057,-1.5236],[131.5731,-1.4802],[131.9273,-1.7062],[132.0734,-2.1052],[132.6987,-2.3054],[133.2962,-2.2042],[133.863,-2.218],[133.735,-2.5168],[133.0335,-2.4794],[132.7366,-2.81],[132.3257,-2.9465],[132.8319,-3.461],[132.7918,-3.9272],[132.9077,-4.0881],[133.2694,-4.052],[133.5862,-3.5666],[134.4304,-3.9078],[134.8235,-4.2594],[135.1856,-4.4489],[135.9705,-4.5196],[136.8221,-4.9283],[137.2671,-4.9994],[137.7063,-5.2219],[138.2708,-5.887],[138.4661,-6.4021],[138.8224,-6.8061],[138.6882,-7.1926],[139.093,-7.56],[138.994,-7.8655],[138.911,-7.9225],[138.9058,-8.0436],[138.9212,-8.0795],[138.8587,-8.1013],[138.8386,-8.1384],[139.3567,-8.1994],[139.9324,-8.1086],[140.977,-9.1061]],[[140.977,-9.1061],[140.9772,-6.8966],[140.8492,-6.7028],[140.9769,-6.3351],[140.9758,-4.5959],[140.9745,-2.6005]],[[109.906,-7.8377],[110.4767,-8.1119],[111.6734,-8.3679],[111.792,-8.2565],[112.6727,-8.447],[113.1979,-8.2773],[113.7239,-8.5283],[114.197,-8.6456],[114.3587,-8.4091],[114.4673,-7.831],[114.0161,-7.6181],[113.2993,-7.7885],[112.7615,-7.5312],[112.5828,-6.9899],[112.0679,-6.8936],[111.4934,-6.6235],[111.1569,-6.6921],[111.0518,-6.4567],[110.7305,-6.457],[110.5715,-6.8362],[110.3557,-6.9729],[109.532,-6.8351],[108.923,-6.8447],[108.6055,-6.7617],[108.5396,-6.4869],[108.2164,-6.238],[107.4703,-6.1454],[107.3541,-5.976],[106.9935,-6.0785],[106.4954,-6.0348],[106.0527,-5.881],[105.8241,-6.4346],[105.4536,-6.8088],[105.9596,-6.8176],[106.2834,-6.9833],[106.5227,-7.411],[107.4114,-7.4959],[107.6865,-7.6621],[108.3268,-7.8175],[108.5396,-7.6923],[109.3688,-7.7135],[109.906,-7.8377]],[[119.8465,-0.8746],[119.7352,-0.641],[119.3284,-1.2145],[119.354,-1.9347],[119.1414,-2.442],[118.7573,-2.7758],[118.9268,-3.5661],[119.2976,-3.4279],[119.5852,-3.9703],[119.6268,-4.3145],[119.5252,-4.8831],[119.3528,-5.3556],[119.648,-5.6788],[120.3233,-5.5095],[120.2643,-5.15],[120.4021,-4.5745],[120.3535,-3.9308],[120.4465,-3.7287],[120.2316,-2.9504],[120.7761,-2.6149],[121.0669,-2.7522],[121.0667,-3.1938],[120.8938,-3.5392],[121.5363,-4.2306],[121.4846,-4.6564],[121.9917,-4.8557],[122.1078,-4.52],[122.9002,-4.3888],[122.4414,-3.7311],[122.2005,-3.5566],[122.3859,-3.132],[122.0156,-2.6935],[121.6921,-1.9081],[121.7986,-1.718],[122.3688,-1.4928],[122.8117,-0.9241],[123.3833,-1.0037],[123.4544,-0.7582],[123.2395,-0.5705],[122.9124,-0.7629],[122.2077,-0.7647],[122.1053,-0.9262],[121.5007,-0.8593],[121.0733,-1.4213],[120.676,-1.3947],[120.5824,-1.1052],[120.0892,-0.6573],[119.9956,-0.2092],[120.1284,0.1811],[120.3753,0.4777],[120.8924,0.4233],[121.6901,0.5238],[121.8005,0.4265],[122.3244,0.4971],[122.9779,0.4828],[123.2388,0.3245],[123.7458,0.3109],[124.3218,0.3989],[124.8987,0.973],[125.1443,1.4213],[124.8504,1.4897],[124.5484,1.3598],[124.315,1.0377],[123.9479,0.8389],[122.968,0.9626],[122.8489,0.818],[122.4541,1.0207],[121.6309,1.062],[121.43,1.233],[120.9673,1.3462],[120.5681,0.7821],[120.0628,0.7429],[119.794,0.1966],[119.7578,-0.4699],[119.8465,-0.8746]],[[100.9473,1.8254],[100.561,2.1568],[100.2034,2.7099],[99.7507,3.1805],[98.3057,4.0803],[98.2756,4.4254],[98.054,4.5532],[97.9092,4.8896],[97.4968,5.2519],[96.6506,5.2163],[96.1262,5.2818],[95.8875,5.5122],[95.4129,5.6496],[95.1973,5.5464],[95.4263,4.8273],[96.4303,3.8253],[96.7605,3.7487],[97.6027,2.8662],[97.6582,2.4116],[98.5352,1.9365],[99.0899,0.622],[99.1393,0.2737],[99.6109,0.0986],[99.8138,-0.2946],[100.3014,-0.8163],[100.406,-1.2644],[100.8872,-2.0372],[101.1048,-2.5871],[101.327,-2.7392],[101.6375,-3.2507],[102.2222,-3.6428],[102.3125,-3.9915],[103.4146,-4.8693],[103.7054,-4.955],[104.2977,-5.6433],[104.6228,-5.4907],[105.1184,-5.7822],[105.3107,-5.466],[105.6021,-5.8098],[105.7826,-5.8285],[105.9063,-4.4693],[105.8128,-4.2387],[105.9525,-3.8338],[105.8196,-3.6725],[106.0632,-3.2667],[106.0156,-2.9695],[105.7918,-2.8621],[105.6238,-2.4018],[104.8833,-2.2849],[104.6638,-2.0313],[104.4544,-1.531],[104.3772,-1.0317],[103.8391,-1.0328],[103.376,-0.7268],[103.4944,-0.1184],[103.7915,-0.0125],[103.7112,0.3115],[103.3622,0.5363],[103.0747,0.4423],[102.8771,0.7264],[102.5519,0.7381],[102.2401,0.9821],[102.1182,1.3865],[101.7786,1.6443],[101.3776,1.7733],[101.3,2.0466],[100.9079,2.2995],[100.9473,1.8254]],[[120.7925,-9.9609],[120.4363,-9.6313],[119.6292,-9.3419],[119.1687,-9.3855],[119.0374,-9.6759],[119.4773,-9.7486],[119.9763,-9.9924],[120.1556,-10.221],[120.7112,-10.2067],[120.7925,-9.9609]],[[116.6333,-8.2751],[116.3762,-8.2018],[116.0279,-8.445],[116.0021,-8.8989],[116.5004,-8.8027],[116.7432,-8.3918],[116.6333,-8.2751]],[[119.2036,-8.6109],[118.9883,-8.309],[118.4436,-8.2579],[118.1152,-8.1139],[117.8052,-8.72],[117.5581,-8.4055],[117.1951,-8.3576],[116.7901,-8.5837],[116.763,-9.0156],[117.0097,-9.1073],[118.2993,-8.7579],[118.465,-8.865],[119.2036,-8.6109]],[[123.0264,-8.2888],[122.2884,-8.6339],[121.8347,-8.4737],[121.5095,-8.6021],[120.9761,-8.3375],[120.277,-8.2692],[119.9194,-8.4612],[119.824,-8.7804],[120.5939,-8.7958],[120.9229,-8.9262],[121.7937,-8.884],[122.1145,-8.7324],[122.8074,-8.6109],[123.0264,-8.2888]],[[115.6192,-8.2888],[115.2155,-8.0595],[114.6914,-8.135],[114.639,-8.3986],[115.2539,-8.7146],[115.6048,-8.5011],[115.6192,-8.2888]],[[99.2744,-1.6349],[98.8828,-0.9132],[98.5938,-1.1984],[98.8848,-1.6794],[99.2744,-1.6349]],[[103.0487,0.797],[102.5564,1.1257],[102.5579,0.7803],[103.0487,0.797]],[[96.4795,2.415],[95.884,2.919],[95.698,2.7788],[96.3076,2.3741],[96.4795,2.415]],[[125.134,-8.2171],[124.4507,-8.149],[124.4182,-8.4646],[125.1233,-8.3523],[125.134,-8.2171]],[[126.8368,-7.7263],[126.6314,-7.5654],[126.3284,-7.6957],[126.4219,-7.9325],[126.8368,-7.7263]],[[138.939,-7.5421],[138.8045,-7.3742],[138.2442,-7.4565],[138.0281,-7.61],[137.637,-8.3894],[138.4442,-8.3791],[138.6609,-8.169],[138.8182,-8.0932],[138.9041,-8.0759],[138.8838,-7.9325],[138.9827,-7.8298],[139.0464,-7.5619],[138.939,-7.5421]],[[131.6986,-7.2267],[131.5288,-7.1701],[131.1196,-7.7338],[131.3609,-7.9474],[131.6433,-7.5991],[131.6986,-7.2267]],[[114.0457,-6.9146],[113.9237,-6.8648],[112.9153,-6.8917],[112.7425,-7.1614],[113.549,-7.2338],[114.0457,-6.9146]],[[134.4844,-6.5756],[134.1238,-6.1716],[134.0734,-6.8268],[134.3107,-6.8595],[134.4844,-6.5756]],[[134.7581,-6.1579],[134.6965,-5.5341],[134.4912,-5.4482],[134.2759,-6.0836],[134.6078,-6.3696],[134.7581,-6.1579]],[[122.78,-4.9166],[122.7355,-4.6437],[122.405,-4.7379],[122.2752,-5.3276],[122.5435,-5.4288],[122.78,-4.9166]],[[123.1499,-5.225],[122.9836,-5.0878],[122.5671,-5.5069],[122.8276,-5.6762],[123.1499,-5.225]],[[127.2409,-3.471],[127.0935,-3.2008],[126.4214,-3.0705],[125.9917,-3.2482],[126.1736,-3.6025],[126.7422,-3.8594],[127.2434,-3.6061],[127.2409,-3.471]],[[130.8732,-3.574],[130.5785,-3.1228],[129.4435,-2.7849],[129.1218,-2.9577],[128.8652,-2.8621],[128.1755,-2.857],[128.4841,-3.4625],[128.8775,-3.2026],[129.4856,-3.4635],[129.5449,-3.2978],[130.8179,-3.8688],[130.8732,-3.574]],[[108.2937,-2.8484],[108.0666,-2.5945],[107.6703,-2.5615],[107.5811,-3.0107],[107.7531,-3.1985],[108.1877,-3.1369],[108.2937,-2.8484]],[[125.3148,-1.779],[124.6328,-1.6311],[124.3849,-1.6679],[124.406,-2.0041],[125.3148,-1.779]],[[136.8485,-1.7653],[136.1913,-1.6539],[136.2732,-1.9094],[136.8485,-1.7653]],[[106.7691,-2.5603],[106.354,-2.463],[106.1746,-1.8791],[105.8757,-1.4892],[105.4596,-1.5629],[105.3064,-2.135],[105.7957,-2.1718],[105.9865,-2.8212],[106.613,-2.9426],[106.7691,-2.5603]],[[128.1452,-1.594],[127.6245,-1.3295],[127.5327,-1.7314],[128.0515,-1.7145],[128.1452,-1.594]],[[136.3757,-1.0937],[136.1963,-1.0666],[135.8474,-0.6959],[135.3699,-0.6535],[135.8283,-1.1078],[136.1428,-1.2234],[136.3757,-1.0937]],[[97.9285,0.9961],[97.3498,1.5454],[97.2331,1.2773],[97.3888,0.9521],[97.883,0.643],[97.9285,0.9961]],[[127.666,-0.2092],[127.8924,-0.0172],[127.9602,0.4828],[128.7039,0.332],[128.6843,0.5417],[128.3135,0.6682],[128.3154,0.9016],[128.7012,1.0709],[128.7195,1.5706],[128.1868,1.3742],[127.8517,1.8254],[127.5809,1.7518],[127.4059,1.2299],[127.5723,0.4223],[127.7137,0.2773],[127.666,-0.2092]],[[128.6864,2.484],[128.4666,2.5943],[128.1971,2.2662],[128.5667,2.1099],[128.6864,2.484]],[[102.0731,6.2575],[101.8005,5.7399],[101.5347,5.906],[101.1054,5.6376],[101.0817,6.2465],[100.3874,6.5221],[100.1273,6.4423]],[[100.1273,6.4423],[100.3491,6.0127],[100.43,5.3029],[100.5774,4.8543],[100.5654,4.3192],[100.7207,3.8681],[101.2976,3.2746],[101.2831,2.9112],[102.188,2.2164],[102.489,2.0929],[103.3674,1.5384],[103.5041,1.2899],[103.8397,1.4765],[104.2947,1.4465],[103.949,2.3399],[103.4346,2.9618],[103.4822,3.5118],[103.3387,3.7582],[103.4942,4.3366],[103.4486,4.7951],[103.1203,5.3813],[102.4998,5.8974],[102.3157,6.1904],[102.0731,6.2575]],[[114.9817,4.8891],[114.7518,4.7385],[114.8364,4.3572],[114.5866,4.0214],[114.2456,4.4814],[113.9988,4.6011]],[[113.9988,4.6011],[113.9468,4.2738],[113.4343,3.7532],[112.9744,3.1442],[112.0135,2.8859],[111.4403,2.6801],[111.3655,2.3408],[110.9679,1.5032],[110.3665,1.7159],[109.9277,1.6923],[109.6453,2.0832]],[[117.5671,4.1597],[118.5428,4.36],[118.1365,4.8823],[118.3572,5.0388],[118.6815,4.9443],[119.1559,5.1062],[118.9709,5.4283],[118.4107,5.7961],[117.6546,5.9587],[117.7438,6.3899],[116.9738,6.7081],[116.7464,7.0104],[116.5032,6.4952],[116.2013,6.218],[115.8486,5.56],[115.5501,5.5402],[115.3596,5.3196],[115.557,5.0672],[115.1462,4.9085],[115.0298,4.8206],[114.9817,4.8891]],[[-69.5101,-17.5066],[-69.8576,-17.7342],[-69.7831,-17.9816],[-69.9703,-18.2506],[-70.3947,-18.3377]],[[-70.3947,-18.3377],[-70.2877,-19.301],[-70.1233,-20.0722],[-70.2056,-20.7394],[-70.0587,-21.4334],[-70.152,-21.6648],[-70.297,-22.9177],[-70.5622,-23.0598],[-70.4985,-23.7846],[-70.5828,-24.5248],[-70.4448,-25.3449],[-70.7104,-25.8354],[-70.6424,-26.3153],[-70.7886,-26.9963],[-70.96,-27.1614],[-70.9124,-27.6218],[-71.1381,-27.946],[-71.1739,-28.3606],[-71.522,-28.9401],[-71.3072,-29.4212],[-71.2866,-29.9103],[-71.6392,-30.2522],[-71.7134,-30.6149],[-71.4125,-32.3696],[-71.6408,-33.5006],[-72.0268,-34.1627],[-72.0572,-34.6588],[-72.2306,-35.1161],[-72.6466,-35.5666],[-73.002,-36.7138],[-73.2826,-37.214],[-73.6718,-37.3626],[-73.6681,-37.7194],[-73.4628,-38.0917],[-73.5433,-38.4207],[-73.2834,-39.0753],[-73.2416,-39.4895],[-73.6832,-39.9425],[-73.9469,-40.9728],[-73.66,-41.7575],[-73.2014,-41.7848],[-72.9573,-41.4836],[-72.6451,-41.7228],[-72.8636,-41.9059],[-72.8422,-42.8381],[-72.7611,-43.009],[-73.1113,-43.461],[-72.9794,-43.7612],[-73.2777,-44.11],[-72.6868,-44.4885],[-72.7277,-44.7586],[-73.4607,-45.2663],[-73.5548,-45.8776],[-73.7698,-46.2346],[-74.1894,-45.7936],[-74.7134,-45.9845],[-75.7047,-46.6393],[-75.0834,-46.6409],[-74.2668,-46.7817],[-73.9576,-47.0603],[-74.3247,-47.2189],[-74.7362,-47.7045],[-73.7097,-47.7761],[-73.8911,-48.0222],[-74.4154,-47.9837],[-74.1971,-48.4733],[-74.3922,-48.5991],[-74.4241,-49.3712],[-74.2507,-50.081],[-74.5737,-50.0993],[-74.1261,-50.7625],[-74.2564,-50.9394],[-73.54,-52.0553],[-73.5309,-52.457],[-72.9536,-53.0236],[-72.6561,-52.5217],[-72.1609,-52.6521],[-73.1991,-53.2408],[-72.4669,-53.2831],[-71.5308,-52.8667],[-71.2541,-53.0168],[-72.4533,-53.4073],[-72.0535,-53.707],[-71.2287,-53.8747],[-70.9736,-53.756],[-70.8121,-52.8214],[-69.2347,-52.2031],[-68.4486,-52.3466]],[[-68.4486,-52.3466],[-69.9528,-52.0074],[-71.9177,-51.9901],[-72.2811,-51.7015],[-72.3822,-51.1606],[-72.3028,-50.6489],[-73.0961,-50.7706],[-73.5306,-50.1408],[-73.4651,-49.76]],[[-73.4651,-49.76],[-73.4579,-49.3077],[-73.0982,-49.2728]],[[-73.0982,-49.2728],[-73.0097,-48.9904],[-72.5923,-48.7911],[-72.3256,-48.2855],[-72.5439,-47.9148],[-72.0098,-47.1982],[-71.9341,-46.7995],[-71.6872,-46.6901],[-71.7985,-45.7399],[-71.3115,-45.2995],[-71.5887,-44.9781],[-71.1227,-44.5303],[-71.822,-44.4032],[-71.6599,-43.9263],[-71.9373,-43.4569],[-71.743,-43.1901],[-72.1485,-42.9987],[-72.1247,-42.2633],[-71.7363,-42.0839],[-71.926,-41.6229],[-71.8514,-40.9383],[-71.9556,-40.7204],[-71.402,-39.236],[-71.4158,-38.9353],[-70.8738,-38.6914],[-71.185,-37.7061],[-71.1453,-36.6883],[-71.0433,-36.4843],[-70.3803,-36.046],[-70.3866,-35.1667],[-70.2278,-34.5853],[-69.8328,-34.2432],[-69.8954,-33.6623],[-69.7877,-33.3794],[-70.1008,-33.1869],[-70.0002,-32.8766],[-70.3218,-32.2801],[-70.2417,-31.9615],[-70.5914,-31.5496],[-70.3398,-31.0417],[-70.2171,-30.5151],[-69.9028,-30.3127],[-69.9291,-29.7183],[-70.0426,-29.3631],[-69.8039,-29.0987],[-69.653,-28.3979],[-69.173,-27.9241],[-68.8011,-27.1128],[-68.3305,-27.045],[-68.5702,-26.5506],[-68.4199,-26.1793],[-68.606,-25.437],[-68.3674,-25.1034],[-68.5724,-24.7699],[-68.2445,-24.3854],[-67.3624,-24.0304],[-67.014,-23.0007],[-67.1939,-22.8222]],[[-67.1939,-22.8222],[-67.8763,-22.8336],[-67.8587,-22.5668],[-68.0962,-21.954],[-68.2075,-21.2843],[-68.4816,-20.643],[-68.6855,-20.5168],[-68.7755,-20.0897],[-68.4964,-19.4584],[-68.9896,-18.9465],[-69.1408,-18.0308],[-69.3024,-17.9762],[-69.5101,-17.5066]],[[-68.6276,-52.6396],[-69.1402,-52.6838],[-69.5839,-52.5099],[-70.4735,-53.3093],[-70.137,-53.7387],[-70.073,-54.2488],[-70.8603,-54.3178],[-71.2897,-54.6764],[-70.2397,-54.8578],[-69.7949,-54.7877],[-69.067,-54.9488],[-68.6419,-54.783]],[[-68.6419,-54.783],[-68.6276,-52.6396]],[[-67.9993,-55.6275],[-68.4412,-54.9397],[-69.886,-55.0636],[-69.6077,-55.3655],[-67.9993,-55.6275]],[[-67.8832,-55.2438],[-67.4232,-55.2165],[-67.3018,-54.9289],[-67.9418,-54.9055],[-67.8832,-55.2438]],[[-72.5297,-54.0754],[-72.187,-53.7765],[-72.6559,-53.5368],[-73.5847,-53.5828],[-72.5297,-54.0754]],[[-75.1983,-49.7712],[-74.8677,-50.0162],[-74.4205,-49.6896],[-74.5255,-48.7228],[-75.0515,-48.857],[-74.9302,-49.3142],[-75.4673,-49.3327],[-75.1983,-49.7712]],[[-73.3825,-44.5878],[-73.1475,-44.9119],[-72.7212,-44.528],[-73.002,-44.3613],[-73.3825,-44.5878]],[[-74.3346,-43.2817],[-73.877,-43.422],[-73.5167,-42.7892],[-73.8092,-42.6087],[-73.4891,-42.1456],[-73.537,-41.84],[-74.0553,-41.945],[-74.1275,-42.6711],[-74.3346,-43.2817]],[[-67.1939,-22.8222],[-66.7359,-22.2251],[-66.3775,-22.1271],[-66.24,-21.7924],[-65.7446,-22.114],[-65.0204,-22.0966],[-64.5869,-22.2128],[-64.294,-22.6909],[-63.9476,-22.0076],[-62.8044,-22.0041],[-62.6504,-22.2345]],[[-62.6504,-22.2345],[-62.2757,-21.0666],[-62.2773,-20.5798],[-61.9443,-20.1041],[-61.7612,-19.6578],[-60.0064,-19.2981],[-59.0895,-19.2867],[-58.1753,-19.8214],[-58.1588,-20.1651]],[[-58.1588,-20.1651],[-57.8597,-19.9801],[-58.1246,-19.7299],[-57.789,-19.0592],[-57.5511,-18.1836],[-57.7908,-17.5558],[-58.3812,-17.2672],[-58.4647,-16.3313],[-60.1298,-16.2731],[-60.238,-15.5027],[-60.2917,-14.6301],[-60.4735,-14.1172],[-60.4653,-13.8166],[-60.8967,-13.5529],[-61.848,-13.5308],[-62.2216,-13.1213],[-62.8074,-12.9889],[-63.075,-12.6527],[-63.2473,-12.7013],[-63.8014,-12.4549],[-64.3957,-12.4573],[-64.4691,-12.2611],[-64.9974,-11.9963],[-65.353,-11.3906],[-65.303,-10.9907],[-65.45,-10.4681],[-65.2881,-10.2162],[-65.3044,-9.8257],[-65.7886,-9.733],[-66.6319,-9.9043],[-67.0643,-10.2569],[-67.3378,-10.3261],[-67.7558,-10.7142],[-68.0979,-10.6977],[-68.2933,-10.979],[-68.6157,-11.1125],[-69.5776,-10.9523]],[[-69.5776,-10.9523],[-68.6843,-12.5025],[-68.981,-12.8679],[-69.016,-13.7531],[-68.8837,-14.2115],[-69.2475,-14.5937],[-69.3907,-14.9644],[-69.1481,-15.2333],[-69.4243,-15.6563],[-69.2196,-16.1528],[-69.0017,-16.4228],[-69.4274,-17.0869],[-69.5101,-17.5066]],[[-69.5776,-10.9523],[-69.9561,-10.9193],[-70.2894,-11.0647],[-70.6413,-11.0108],[-70.6384,-9.8518],[-70.6808,-9.5277],[-71.3914,-10.0068],[-72.1957,-10.0056],[-72.4302,-9.4822],[-73.215,-9.409],[-72.9594,-9.0856],[-73.1746,-8.7207],[-73.5265,-8.3724],[-73.7122,-7.7882],[-73.9694,-7.5847],[-73.7608,-7.3374],[-73.7655,-6.9042],[-73.1318,-6.4353],[-73.2348,-6.0776],[-73.0014,-5.7088],[-72.9179,-5.1321],[-72.6273,-5.0224],[-72.0711,-4.6051],[-71.7743,-4.4815],[-70.9687,-4.3853],[-70.8322,-4.1794],[-70.4299,-4.1342],[-69.9649,-4.2365]],[[-69.9649,-4.2365],[-70.3111,-3.8293],[-70.7341,-3.782],[-70.0506,-2.7151],[-70.8742,-2.2296],[-71.2199,-2.3415],[-71.7679,-2.1422],[-71.9663,-2.3285],[-72.3966,-2.4465],[-72.9433,-2.419],[-73.1953,-2.1872],[-73.1863,-1.7996],[-73.531,-1.6737],[-73.6366,-1.2552],[-74.2891,-0.943],[-74.4127,-0.5731],[-74.8247,-0.1705],[-75.2835,-0.107]],[[-75.2835,-0.107],[-75.272,-0.5257],[-75.56,-1.5026],[-76.0912,-2.1289],[-76.6846,-2.5736],[-77.849,-2.9806],[-78.3629,-3.4887],[-78.6824,-4.3269],[-79.0093,-4.9601],[-79.3032,-4.9612],[-79.5072,-4.5316],[-80.0797,-4.309],[-80.4085,-4.4775],[-80.4811,-3.9988],[-80.1653,-3.89],[-80.3407,-3.3935]],[[-80.3407,-3.3935],[-80.7717,-3.7101],[-81.2528,-4.2387],[-81.3376,-4.6783],[-81.0634,-5.022],[-81.1985,-5.2081],[-80.8562,-5.6505],[-81.1015,-6.0721],[-79.9647,-6.7874],[-79.6128,-7.2664],[-79.4659,-7.7159],[-78.9857,-8.2174],[-78.9403,-8.4355],[-78.4974,-9.1895],[-78.0558,-10.3475],[-77.6705,-10.9275],[-77.6473,-11.2923],[-77.3205,-11.4937],[-77.1749,-12.0719],[-76.8118,-12.4827],[-76.2211,-13.3576],[-76.2821,-14.1409],[-75.9307,-14.6493],[-75.5506,-14.8849],[-75.1608,-15.3933],[-74.0466,-15.9601],[-73.7003,-16.2207],[-72.6924,-16.6607],[-71.8076,-17.1913],[-71.5145,-17.2846],[-71.3596,-17.6331],[-70.3947,-18.3377]],[[-73.0982,-49.2728],[-73.0597,-49.555],[-73.4651,-49.76]],[[-68.4486,-52.3466],[-68.9359,-51.6455],[-69.1678,-50.9782],[-68.8764,-50.3306],[-68.0764,-50.0873],[-67.732,-49.7813],[-67.5565,-49.0158],[-67.1143,-48.6738],[-66.4685,-48.4003],[-65.8471,-47.9444],[-65.7449,-47.2042],[-66.7864,-47.0066],[-67.4232,-46.5674],[-67.6225,-46.1638],[-67.3319,-45.6135],[-66.8689,-45.2356],[-66.2004,-44.9929],[-65.6026,-45.0277],[-65.6855,-44.7125],[-65.2169,-44.3664],[-65.3341,-43.6726],[-64.5131,-42.9363],[-64.9971,-42.7848],[-64.6149,-42.5153],[-64.3226,-42.5424],[-64.1079,-42.8837],[-63.6203,-42.7512],[-63.5905,-42.3412],[-63.81,-42.0702],[-64.5663,-42.436],[-65.0696,-41.9858],[-64.9933,-41.553],[-65.1751,-41.0102],[-64.9465,-40.7114],[-63.7794,-41.1588],[-63.0995,-41.1549],[-62.3378,-40.8727],[-62.2506,-40.6222],[-62.4842,-40.2875],[-62.0558,-39.4519],[-62.3578,-39.1022],[-62.0267,-38.9376],[-61.5181,-39.0115],[-60.8657,-38.9757],[-59.0632,-38.6938],[-58.1557,-38.4301],[-57.5936,-38.1528],[-57.5119,-37.8723],[-57.0559,-37.4127],[-56.6649,-36.851],[-56.6976,-36.3962],[-57.248,-36.1703],[-57.3526,-35.7275],[-57.1449,-35.4842],[-57.522,-35.0132],[-58.1549,-34.7504],[-58.5115,-34.4359],[-58.3786,-34.1882],[-58.5494,-33.683],[-58.3832,-33.0755],[-58.1468,-33.05],[-58.2001,-32.4472]],[[-58.2001,-32.4472],[-58.1686,-31.846],[-57.9868,-31.5541],[-57.8072,-30.9076],[-57.8496,-30.4853],[-57.6425,-30.1931]],[[-57.6425,-30.1931],[-57.3252,-29.981],[-56.4158,-29.0514],[-55.7725,-28.232],[-55.0258,-27.8402],[-54.8275,-27.5451],[-53.8192,-27.1397],[-53.6667,-26.2192],[-53.91,-25.6292],[-54.6002,-25.5749]],[[-54.6002,-25.5749],[-54.7065,-26.4418],[-54.9753,-26.7878],[-55.414,-26.9799],[-55.7547,-27.4437],[-56.1246,-27.2989],[-56.5464,-27.4551],[-57.1801,-27.4873],[-58.022,-27.2598],[-58.6533,-27.1563],[-58.2479,-26.7582],[-58.0865,-26.1272],[-57.5569,-25.4598],[-57.7541,-25.1809],[-58.2241,-24.9412],[-58.8092,-24.7768],[-60.0337,-24.007],[-60.328,-24.018],[-61.0063,-23.8055],[-61.9564,-23.0344],[-62.2872,-22.4839],[-62.6504,-22.2345]],[[-68.6419,-54.783],[-67.031,-54.9052],[-66.5405,-55.051],[-65.9662,-54.9021],[-65.8442,-54.6474],[-66.4822,-54.4658],[-67.9836,-53.6013],[-68.266,-52.9806],[-68.6276,-52.6396]],[[33.7015,34.9729],[33.8918,34.9581]],[[33.8918,34.9581],[33.8981,35.0613]],[[33.8981,35.0613],[33.9065,35.0691]],[[33.9065,35.0691],[33.6794,35.0339]],[[33.6794,35.0339],[33.7029,34.9879]],[[33.7029,34.9879],[33.7015,34.9729]],[[33.7029,34.9879],[33.4159,35.1603],[32.9219,35.0723],[32.6915,35.1837]],[[32.6915,35.1837],[32.6598,35.1871],[32.5848,35.1725],[32.4133,34.7535],[32.7607,34.6532]],[[32.7607,34.6532],[32.8323,34.7009],[33.0156,34.6344]],[[33.0156,34.6344],[33.6056,34.8218],[33.7015,34.9729]],[[33.8918,34.9581],[34.022,35.057]],[[34.022,35.057],[33.8981,35.0613]],[[77.8003,35.4954],[77.049,35.1104]],[[77.049,35.1104],[76.5532,34.7258],[76.0234,34.6772],[75.7771,34.5038],[74.2858,34.7689],[73.9622,34.6682],[73.7749,34.371],[73.9983,34.1968],[74.1416,33.5494],[74.0023,33.1777],[75.0237,32.4663],[75.2947,32.1489],[74.8286,32.0254],[74.4894,31.7112],[74.6119,31.4402],[74.3298,30.8996],[73.8518,30.3727],[73.9444,30.1883],[73.3703,29.9273],[73.2329,29.5366],[72.9015,29.0226],[72.3822,28.784],[71.8609,27.9502],[70.8316,27.7015],[70.3419,28.0115],[69.5756,27.1884],[69.4651,26.8078],[69.8156,26.5803],[70.1581,26.5301],[70.0646,25.9803],[70.6466,25.4314],[71.0639,24.6826],[70.7555,24.2314],[70.5629,24.4241],[69.972,24.1652],[69.5631,24.2768],[68.7259,24.2892],[68.7245,23.9652],[68.183,23.8421]],[[68.183,23.8421],[68.5523,23.2597],[69.2388,22.8419],[69.7158,22.7469],[70.3988,22.9455],[70.1785,22.562],[69.6161,22.3559],[68.9744,22.4047],[68.9942,22.2039],[70.0544,21.1532],[70.5415,20.8078],[70.9824,20.7102],[72.1047,21.2051],[72.2957,21.6539],[72.166,21.7939],[72.3172,22.1849],[72.5531,22.2825],[72.6061,21.2666],[72.945,20.77],[72.6501,19.842],[72.9774,18.2951],[73.2347,17.3023],[73.3192,16.5098],[73.447,16.0689],[73.8859,15.4352],[74.1113,14.7803],[74.2632,14.7016],[74.6146,13.8355],[74.8176,12.8618],[75.1309,12.2078],[75.5308,11.6937],[75.8328,11.0978],[76.1775,10.1706],[76.3592,9.9154],[76.3118,9.493],[76.544,8.9125],[76.9959,8.3681],[77.5109,8.076],[78.0628,8.3732],[78.1779,8.8611],[78.4499,9.1166],[78.9568,9.2748],[78.9808,9.6672],[79.3981,10.3247],[79.8638,10.3787],[79.8553,11.1599],[79.752,11.577],[79.8618,12.022],[80.156,12.4745],[80.3328,13.1981],[80.1194,13.5007],[80.2372,13.8397],[80.1211,14.242],[80.197,14.565],[80.0545,15.0141],[80.2632,15.6745],[80.6904,15.9007],[80.9989,15.8467],[81.3174,16.3675],[81.763,16.3226],[82.3074,16.5798],[82.2993,17.0303],[82.4749,17.206],[83.2389,17.593],[83.6139,18.0452],[84.0774,18.2716],[84.8721,19.2199],[85.5492,19.6906],[86.2686,19.9103],[86.7339,20.4622],[87.0036,20.657],[86.844,21.0822],[87.2009,21.552],[87.7038,21.6555],[87.9705,21.8365],[88.3931,21.6002],[88.7625,21.5559],[89.0604,22.1299]],[[89.0604,22.1299],[88.8428,22.9646],[88.5401,23.65],[88.7375,24.2871],[88.4754,24.3155],[88.0218,24.6456],[88.4315,25.173],[88.8986,25.1693],[88.7723,25.502],[88.5303,25.5002],[88.0744,25.9081],[88.1638,26.1405],[88.6563,26.4151],[88.808,26.2334],[89.3515,25.9969],[89.8301,25.908],[89.795,25.3742],[90.3646,25.15],[92.0018,25.183],[92.4581,24.9533],[92.2338,24.7775],[92.1076,24.406],[91.5965,24.105],[91.363,24.0998],[91.1408,23.6121],[91.3005,23.1423],[91.5366,22.9819],[92.1508,23.7317],[92.3569,23.2891],[92.5759,21.9776]],[[92.5759,21.9776],[93.169,22.2469],[93.0795,22.7727],[93.3749,23.1297],[93.4567,23.96],[93.9979,23.917],[94.7086,25.0259],[94.608,25.3946],[95.0088,25.7371],[95.1395,26.0299],[95.1191,26.6042],[95.3927,26.6918],[96.1426,27.2575],[96.7589,27.3417],[96.8702,27.6191],[97.2229,27.8997],[97.3235,28.2175]],[[97.3235,28.2175],[97.1155,28.3666],[96.3365,28.4797],[96.598,28.7099],[96.142,29.3685],[95.7448,29.3404],[95.2249,29.0594],[94.6304,29.3195],[94.2502,28.9331],[93.8631,28.7049],[93.4462,28.6719],[92.6548,28.1058],[92.575,27.8478],[92.0649,27.7617],[91.6283,27.8527]],[[91.6283,27.8527],[91.5951,27.5464],[91.9751,27.4724],[92.0359,26.8548],[90.5878,26.7801],[90.3826,26.8918],[89.8221,26.701],[88.9545,26.9126],[88.8923,27.3155]],[[88.8923,27.3155],[88.741,27.5457],[88.8539,27.8437],[88.6105,28.1058],[88.1182,27.8609]],[[88.1182,27.8609],[87.9707,27.1027],[88.1691,26.744],[88.0742,26.4539],[87.3262,26.3533],[86.7136,26.4146],[86.2844,26.612],[85.8216,26.5717],[85.5986,26.8544],[85.2873,26.737],[84.8019,27.0138],[84.577,27.329],[84.0796,27.5095],[83.8341,27.434],[82.7521,27.495],[82.0516,27.9052],[81.8557,27.8509],[81.3071,28.1238],[81.1463,28.3722],[80.6483,28.6198],[80.3498,28.6202],[80.0364,28.837],[80.2787,29.2681],[80.369,29.7579],[80.996,30.197]],[[80.996,30.197],[80.2528,30.565],[79.8335,30.9615],[79.395,31.0367],[79.2383,31.3297],[78.7385,31.335],[78.7446,31.9642],[78.458,32.2297],[78.6302,32.578],[78.9434,32.3464],[79.4435,32.5348],[79.6207,32.7287],[79.4141,32.9721],[79.4561,33.2504],[78.8243,33.4611],[78.7301,34.0793],[78.9854,34.2864],[78.2732,34.6589],[77.8003,35.4954]],[[93.0527,13.2839],[92.8474,13.3449],[92.7178,12.3625],[92.9906,12.5192],[93.0527,13.2839]],[[80.996,30.197],[81.1945,30.0045],[81.5916,30.4143],[82.0888,30.3301],[82.1445,30.0694],[82.5418,29.9232],[82.8366,29.6598],[83.1621,29.6252],[83.5171,29.1917],[84.0991,29.247],[84.2351,28.9],[85.0802,28.3188],[85.6751,28.3064],[85.9803,27.8852],[86.4388,27.9109],[86.662,28.1068],[87.1558,27.8258],[88.1182,27.8609]],[[88.8923,27.3155],[89.051,27.6083],[89.5615,28.1346],[90.2618,28.3354],[90.6839,28.0871],[91.2697,28.0729],[91.6283,27.8527]],[[97.3235,28.2175],[97.5277,28.5295],[98.1187,28.1408],[98.4,27.6757],[98.6793,27.5773],[98.7492,26.7714],[98.6924,25.879],[97.7375,25.0905],[97.5361,24.745],[97.7077,24.1253],[97.89,24.0226],[98.5033,24.1213],[98.8574,23.6043],[98.9107,23.2976],[99.2166,23.0574],[99.3578,22.4955],[99.1664,22.2046],[99.9424,22.0455],[99.9503,21.7212],[100.6217,21.4691],[101.0687,21.762],[101.159,21.5527]],[[101.159,21.5527],[101.2753,21.1741],[101.7225,21.3042],[101.7515,21.8064],[101.5182,22.2282],[101.6545,22.4461],[102.1187,22.3975]],[[102.1187,22.3975],[102.4427,22.7652],[102.9891,22.4376],[103.3096,22.7879],[103.6469,22.799],[103.8668,22.5754],[104.7282,22.8391],[104.7979,23.0856],[105.3323,23.318],[105.8539,22.9046],[106.6675,22.8675],[106.5269,22.4278],[106.7224,22.007],[107.3482,21.5994],[107.7448,21.6575],[107.9912,21.4857]],[[107.9912,21.4857],[108.4481,21.6581],[109.1358,21.603],[109.2146,21.4174],[109.918,21.4894],[109.6702,21.1232],[109.7459,20.6298],[110.1275,20.248],[110.5342,20.4783],[110.1567,20.986],[111.2063,21.532],[111.6305,21.5299],[111.992,21.7638],[112.608,21.7751],[112.826,21.9661],[113.5877,22.2379],[113.5992,22.5752],[113.3679,22.8807],[113.6121,22.9947],[113.8903,22.4527],[114.0824,22.5294]],[[114.0824,22.5294],[114.2298,22.5558]],[[114.2298,22.5558],[114.7167,22.7908],[115.3735,22.6942],[116.4947,22.9394],[116.9176,23.6379],[117.0784,23.5646],[117.8936,24.028],[118.131,24.6201],[118.5711,24.569],[119.1096,25.4068],[119.5584,25.5638],[119.6751,26.6188],[120.0797,26.6461],[120.5178,27.2016],[120.8353,27.956],[121.2368,28.3061],[121.6563,28.3393],[121.5101,28.6571],[121.8406,29.1611],[121.983,29.8232],[121.3774,30.3251],[120.9778,30.5433],[121.4106,30.7674],[121.9774,30.9149],[121.7252,31.2816],[121.3203,31.5048],[121.8219,31.9525],[121.4434,32.1143],[121.3541,32.4148],[120.9112,32.6301],[120.8958,33.0136],[120.4071,33.8598],[120.2571,34.3118],[119.641,34.5505],[119.2073,35.0484],[119.648,35.5839],[120.2428,35.9736],[120.6968,36.144],[120.7506,36.4592],[122.0396,36.9846],[122.5254,36.9445],[122.5491,37.3109],[122.1299,37.4835],[121.4769,37.468],[120.738,37.834],[120.4634,37.7477],[119.4412,37.1206],[118.9724,37.2807],[118.9767,37.6109],[119.2431,37.7695],[118.8401,38.1526],[118.0848,38.1387],[117.566,38.6125],[117.7183,39.093],[118.0454,39.219],[118.3443,39.0307],[118.9402,39.1389],[119.3051,39.433],[119.5356,39.8908],[120.436,40.1945],[120.991,40.8313],[121.3613,40.9396],[122.0491,40.7461],[122.3018,40.5023],[121.436,39.5086],[121.6741,39.088],[123.6226,39.8717],[123.9857,39.8102],[124.37,40.0983]],[[124.37,40.0983],[124.8955,40.4836],[125.7609,40.8857],[126.0078,40.8993],[126.8871,41.7849],[127.2691,41.505],[128.1857,41.4045],[128.303,41.5834],[128.0346,41.9937],[128.9638,42.0885],[129.2431,42.3787],[129.7033,42.4424],[129.8798,42.996],[130.239,42.9022],[130.5308,42.5305]],[[130.5308,42.5305],[130.4072,42.7354],[130.9924,42.8487],[131.2809,43.3802],[131.2645,44.0542],[131.0658,44.682],[131.818,45.3328],[132.9534,45.0244],[133.2021,45.5113],[133.4135,45.5733],[133.6874,46.1418],[133.9025,46.259],[134.1541,47.2579],[134.7726,47.7107],[134.3863,48.3813],[133.092,48.1068],[132.5247,47.7075],[131.0234,47.6823],[130.6634,48.1164],[130.8194,48.2819],[130.5333,48.6358],[129.7112,49.2742],[129.0506,49.3767],[128.6662,49.6095],[128.0925,49.5416],[127.5081,49.8223],[127.5784,50.2206],[127.3307,50.3282],[127.2874,50.751],[126.9318,51.0638],[126.9546,51.3296],[126.4461,51.9825],[126.5312,52.1527],[125.6214,53.0621],[124.7202,53.1488],[123.6396,53.5513],[122.3378,53.4913],[120.8743,53.2802],[120.2802,52.8659],[120.7792,52.1176],[120.1082,51.6652],[119.7483,51.0834],[119.2936,50.5992],[119.3162,50.0927],[118.6444,49.9546],[117.7588,49.5127],[116.6843,49.8233]],[[116.6843,49.8233],[115.5145,48.1221],[115.8527,47.7056],[116.2439,47.8629],[116.8533,47.8721],[117.3171,47.6541],[117.7417,47.9776],[118.5423,47.9662],[119.7,47.1595],[119.9029,46.8424],[119.6801,46.5916],[118.8162,46.7582],[118.2383,46.7154],[117.3017,46.3501],[116.6036,46.3093],[116.012,45.6786],[115.6378,45.4444],[114.5337,45.3855],[114.0553,44.9406],[113.6351,44.7463],[112.6142,44.9088],[112.0115,45.0875],[111.7385,44.9663],[111.4064,44.4165],[111.9334,43.6966],[110.9337,43.2878],[110.4067,42.7686],[109.4851,42.4493],[108.7969,42.3984],[108.1774,42.4543],[106.7678,42.2866],[105.8686,41.9935],[105.0148,41.5961],[104.498,41.6658],[104.5008,41.8706],[103.721,41.7556],[103.0735,42.0045],[102.0342,42.1846],[101.6376,42.5154],[100.017,42.6765],[99.4745,42.5642],[97.1933,42.7873],[96.3506,42.7409],[95.9085,43.2145],[95.3794,44.2871],[94.6982,44.3435],[93.9751,44.66],[93.5253,44.9513],[92.7527,45.038],[91.663,45.0595],[90.9055,45.186],[90.6511,45.4931],[91.0024,46.0218],[91.0475,46.5664],[90.4412,47.493],[89.5418,48.031],[89.0456,47.993],[88.5651,48.343],[87.9428,48.5995],[87.8163,49.1658]],[[87.8163,49.1658],[87.3238,49.0853]],[[87.3238,49.0853],[86.8873,49.1068],[86.5651,48.5273],[85.7837,48.4076],[85.5154,47.9203],[85.6704,47.3843],[85.4986,47.0518],[84.916,46.8506],[84.6635,46.9839],[83.9053,46.974],[83.1504,47.2115],[82.839,46.7324],[82.2915,45.5332],[82.5852,45.1768],[81.9501,45.1445],[81.7393,45.3381],[80.8539,45.1265],[80.0617,45.019],[80.3763,44.6713],[80.3451,44.1031],[80.7127,43.4589],[80.7734,43.1129],[80.3681,43.0285],[80.14,42.623],[80.2103,42.1895]],[[80.2103,42.1895],[80.1819,42.021],[79.3041,41.7876],[78.3599,41.3775],[78.075,41.0395],[76.861,41.0132],[76.4491,40.4155],[75.6818,40.2917],[75.5599,40.6329],[75.1939,40.4413],[74.8354,40.5116],[74.3699,40.1058],[74.004,40.0608],[73.6326,39.4483]],[[73.6326,39.4483],[73.816,38.9938],[73.7974,38.6028],[74.3342,38.667],[74.7763,38.5107],[74.7907,38.0814],[75.1641,37.4006],[74.8923,37.2311]],[[74.8923,37.2311],[74.5424,37.0217]],[[74.5424,37.0217],[75.3513,36.9158],[75.9766,36.4626],[75.8943,36.0974],[76.166,35.8062],[76.5653,35.8655],[76.7774,35.6461]],[[76.7774,35.6461],[77.4128,35.4694],[77.8003,35.4954]],[[111.0105,19.6838],[110.9346,19.9951],[110.6401,20.1083],[110.0896,19.9781],[109.3037,19.9217],[109.1565,19.6496],[108.6317,19.2863],[108.695,18.5048],[109.44,18.289],[110.4268,18.6809],[110.6983,19.4169],[111.0105,19.6838]],[[34.2484,31.2114],[34.8867,29.4901]],[[34.8867,29.4901],[34.9556,29.559]],[[34.9556,29.559],[35.14,30.4302],[35.4385,31.1037],[35.4581,31.4919]],[[35.4581,31.4919],[34.8672,31.3964],[35.0343,31.8611],[34.9582,32.1865],[35.2086,32.5426],[35.561,32.3847]],[[35.561,32.3847],[35.7576,32.7443]],[[35.7576,32.7443],[35.8881,32.9449],[35.8211,33.4067]],[[35.8211,33.4067],[35.4801,33.0874],[35.1052,33.089]],[[35.1052,33.089],[34.8377,32.2807],[34.4812,31.5831]],[[34.4812,31.5831],[34.2484,31.2114]],[[34.4812,31.5831],[34.2003,31.3143]],[[34.2003,31.3143],[34.2484,31.2114]],[[35.4581,31.4919],[35.5594,31.7653],[35.561,32.3847]],[[35.8211,33.4067],[36.0504,33.8164],[36.6041,34.1991],[36.2616,34.6272],[35.9699,34.6498]],[[35.9699,34.6498],[35.6272,34.2011],[35.5784,33.9167],[35.1052,33.089]],[[34.0707,9.4546],[34.1119,8.6266],[33.9708,8.4454],[33.1741,8.4045],[33.0513,7.8011],[33.7161,7.6572],[34.5247,6.7529],[34.7335,6.6376],[35.0987,5.6225],[35.8042,5.318],[35.7845,4.7642],[35.9208,4.6193]],[[35.9208,4.6193],[36.0413,4.4437],[36.8441,4.4322],[38.1019,3.6126],[38.4969,3.6239],[39.4362,3.4624],[39.8485,3.8673],[40.7637,4.2849],[41.1145,3.9623],[41.885,3.9772]],[[41.885,3.9772],[42.1353,4.2001],[42.7898,4.2856],[43.1193,4.6477],[43.969,4.954],[44.9415,4.9115],[46.4239,6.4967],[47.9792,7.9966]],[[47.9792,7.9966],[46.9792,7.9966],[45.5144,8.4965],[44.0239,8.9855],[43.419,9.413],[42.8363,10.2081],[42.6996,10.6585],[42.9237,10.9988]],[[42.9237,10.9988],[42.6156,11.0897],[41.7987,10.9707],[41.7491,11.538],[42.3795,12.4659]],[[42.3795,12.4659],[41.9466,12.8762],[41.7118,13.2479],[41.192,13.6159],[40.8332,14.106],[40.1046,14.466],[39.4894,14.5245],[38.4268,14.4172],[37.8915,14.8795],[37.565,14.1167],[37.2938,14.4574],[37.0727,14.2853],[36.5264,14.2635]],[[36.5264,14.2635],[36.3821,13.571],[36.2336,13.3616],[36.1236,12.7214],[35.6169,12.5752],[35.2156,11.8966],[34.9471,11.2749],[34.9338,10.8453],[34.5871,10.8793],[34.2795,10.5655],[34.3249,10.2687],[34.0707,9.4546]],[[34.0707,9.4546],[33.9021,10.192],[33.1821,10.8432],[33.0829,11.5846],[33.2092,12.2104],[32.7318,12.2162],[32.7467,12.0027],[32.0822,11.9998],[32.3452,11.7091],[32.4141,11.0509],[31.9429,10.6556],[31.6648,10.2142],[31.2348,9.7923],[30.7493,9.7358],[30.013,10.2705],[29.6154,10.0581],[29.4831,9.7617],[29.0095,9.6032],[28.8438,9.3245],[28.0451,9.3314],[27.8951,9.5954],[27.0804,9.6068],[26.5569,9.5205],[25.9009,10.1911],[25.8431,10.4178],[25.0841,10.2932],[24.7927,9.7984],[24.5584,8.8867],[24.1703,8.6893]],[[24.1703,8.6893],[24.1314,8.3431],[24.8321,8.1657],[25.2794,7.6595],[25.36,7.3356],[26.0261,6.9967],[26.378,6.6533],[26.2896,6.3872],[26.528,6.0432],[27.1704,5.7203],[27.3013,5.2052],[27.4413,5.0707]],[[27.4413,5.0707],[27.7724,4.5958],[28.4041,4.2778],[28.7554,4.554],[29.3039,4.3871],[29.4941,4.6683],[30.1227,4.1025],[30.5389,3.8415],[30.8395,3.4902]],[[30.8395,3.4902],[31.1415,3.7851],[31.5054,3.6599],[31.781,3.8158],[31.9437,3.5913],[33.0172,3.8772],[33.5326,3.7743],[33.9771,4.2197]],[[33.9771,4.2197],[34.3812,4.6202],[35.2457,4.9817],[35.5708,4.9043],[35.6106,4.62],[35.9208,4.6193]],[[41.885,3.9772],[41.3427,3.2011],[40.9654,2.8141],[40.9685,0.6223],[40.9798,-0.8708],[41.5229,-1.5728],[41.5351,-1.6963]],[[41.5351,-1.6963],[42.0809,-0.8629],[43.4676,0.6206],[44.5501,1.5591],[46.027,2.4381],[46.6257,3.0239],[47.9485,4.4571],[48.2024,4.9089],[48.6467,5.48],[49.0361,6.1442],[49.0747,6.4153],[49.367,7.0257],[49.8193,7.7399],[49.8421,7.9627],[50.2902,8.4868],[50.422,8.8571],[50.8403,9.4561],[50.9274,10.3278],[51.1382,10.6767],[51.1209,11.5053],[51.2927,11.8331],[50.7979,11.9891],[50.2683,11.5893],[49.5768,11.46],[48.9391,11.2491]],[[48.9391,11.2491],[48.9391,9.4512],[47.9792,7.9966]],[[33.9771,4.2197],[34.2789,3.7097],[34.434,3.182],[34.9236,2.4773],[34.9787,1.6759],[34.7979,1.2319],[34.5075,1.1025],[33.8936,0.1098],[33.9535,-0.1544],[33.9042,-1.0026]],[[33.9042,-1.0026],[34.0525,-1.0404],[35.4156,-1.8013],[37.6449,-3.046],[37.5903,-3.4041],[37.771,-3.6554],[39.1906,-4.6775]],[[39.1906,-4.6775],[39.5511,-4.4021],[39.849,-3.6252],[40.1291,-3.2519],[40.175,-2.7626],[40.8286,-2.3748],[40.9043,-2.0803],[41.3035,-1.9561],[41.5351,-1.6963]],[[34.9646,-11.5736],[34.593,-11.0162],[34.6724,-10.7395],[34.4833,-9.9462],[34.0127,-9.4775],[33.4042,-9.6049],[32.9209,-9.4079]],[[32.9209,-9.4079],[33.2167,-9.7271],[33.6742,-10.577],[33.3191,-10.8181],[33.3909,-11.1648],[33.2303,-11.4166],[33.2549,-12.0726],[33.3732,-12.5185],[33.0248,-12.6127],[32.9951,-13.1909],[32.7228,-13.5734],[33.0494,-13.9966],[33.2027,-14.0139]],[[33.2027,-14.0139],[33.4392,-14.3807],[33.7742,-14.53],[34.3441,-14.3874],[34.5018,-14.5757],[34.5691,-15.2712],[34.2332,-15.8898],[34.3852,-16.1865],[35.305,-17.1042],[35.2144,-16.4842],[35.3746,-16.141],[35.7957,-16.005],[35.7845,-15.1952],[35.853,-14.6675],[35.4557,-14.137],[34.8944,-13.5347],[34.5453,-13.3257],[34.4945,-12.6874],[34.354,-12.1995],[34.6512,-11.57],[34.9646,-11.5736]],[[34.9646,-11.5736],[35.6548,-11.5783],[35.8264,-11.4135],[36.1997,-11.7015],[37.0444,-11.5957],[37.4278,-11.7226],[37.7837,-11.5589],[37.8752,-11.3191],[38.2566,-11.2771],[38.4923,-11.4135],[38.8963,-11.1677],[39.2866,-11.1542],[40.0081,-10.8111],[40.4369,-10.4748]],[[40.4369,-10.4748],[40.2321,-10.2005],[39.7795,-9.9301],[39.6438,-9.1891],[39.4933,-9.0795],[39.28,-8.3093],[39.4544,-8.0104],[39.304,-7.4485],[39.5475,-7.1183],[39.4645,-6.8577],[38.8522,-6.3487],[38.778,-6.0307],[39.1387,-5.1032],[39.1906,-4.6775]],[[33.9042,-1.0026],[32.3576,-1.0026],[30.8284,-1.0026],[30.4718,-1.0668]],[[30.4718,-1.0668],[30.831,-1.5942],[30.8344,-2.3453],[30.5546,-2.4006]],[[30.5546,-2.4006],[30.4158,-2.8517],[30.8322,-3.1728],[30.4689,-3.513],[30.003,-4.2719],[29.7283,-4.4616],[29.4042,-4.4498]],[[29.4042,-4.4498],[29.321,-4.8363],[29.5935,-5.6203],[29.4761,-6.0021],[29.7386,-6.6524],[30.0909,-6.89],[30.3696,-7.3103],[30.7521,-8.1941]],[[30.7521,-8.1941],[30.9595,-8.5505],[31.3533,-8.5872],[31.6727,-8.913],[32.383,-9.1339],[32.9209,-9.4079]],[[35.7576,32.7443],[36.3731,32.3864],[36.8194,32.3168],[38.7745,33.3717]],[[38.7745,33.3717],[40.6905,34.3315],[40.988,34.4285],[41.1957,34.7685],[41.1915,35.1821],[41.3635,35.6552],[41.2406,36.043],[41.4149,36.5274],[41.8438,36.6179],[42.3572,37.11]],[[42.3572,37.11],[42.0092,37.1756],[41.4798,37.0756],[40.709,37.1005],[39.7653,36.7422],[39.2396,36.6613],[38.6641,36.7195],[38.1901,36.9055],[37.4461,36.6342],[37.0145,36.6423],[36.6586,36.8275],[36.5878,36.3248],[36.1385,35.8198],[35.9113,35.9178]],[[35.9113,35.9178],[35.7781,35.5412],[35.9624,35.1979],[35.9699,34.6498]],[[48.9391,11.2491],[48.6548,11.3306],[48.1608,11.1457],[47.3669,11.1728],[46.4478,10.6931],[45.8027,10.8753],[44.962,10.4158],[44.2743,10.4567],[43.8296,10.803],[43.2407,11.4879]],[[43.2407,11.4879],[42.9237,10.9988]],[[-54.6153,2.3263],[-54.1349,2.1107],[-53.8668,2.3049],[-53.3441,2.3496],[-52.9597,2.1752],[-52.7077,2.3589],[-51.9884,3.7046],[-51.6832,4.0394]],[[-51.6832,4.0394],[-51.9313,4.5904],[-52.9946,5.4576],[-53.9443,5.7446],[-54.171,5.3484]],[[-54.171,5.3484],[-54.4821,4.9128],[-54.3552,4.0665],[-53.9888,3.611],[-54.1905,3.1781],[-54.2125,2.7764],[-54.6153,2.3263]],[[2.5218,51.0875],[1.5806,50.8688],[1.521,50.2147],[1.1726,49.961],[0.2359,49.7293],[0.2568,49.4641],[-0.2195,49.2801],[-1.0723,49.3968],[-1.3913,49.7127],[-1.8847,49.5309],[-1.6104,49.2159],[-1.5797,48.6433],[-2.3125,48.687],[-2.6363,48.5388],[-3.0771,48.8283],[-3.5153,48.8419],[-4.5636,48.6296],[-4.4346,47.9757],[-2.5017,47.5267],[-1.9926,47.0523],[-2.1188,46.82],[-1.8048,46.5036],[-1.1796,46.2295],[-1.0487,46.0388],[-1.2473,44.5045],[-1.4769,43.5801],[-1.7941,43.386]],[[-1.7941,43.386],[-1.2749,43.0468],[-0.3074,42.8318],[-0.0389,42.6851],[1.4293,42.5954]],[[1.4293,42.5954],[1.707,42.5028]],[[1.707,42.5028],[2.0517,42.3524],[3.181,42.4315]],[[3.181,42.4315],[3.039,42.9428],[3.3854,43.2839],[3.9393,43.5325],[4.5663,43.3711],[5.3389,43.3343],[6.027,43.0782],[6.6798,43.2016],[6.7311,43.4078],[7.3658,43.7227]],[[7.3658,43.7227],[7.407,43.7635],[7.4375,43.7434]],[[7.4375,43.7434],[7.5023,43.7922]],[[7.5023,43.7922],[7.6919,44.0846],[7.0335,44.2429],[6.8388,44.5029],[7.019,44.7389],[6.6027,45.1034],[7.0622,45.2185],[6.8008,45.8265],[7.0221,45.9253]],[[7.0221,45.9253],[6.7627,46.4293],[6.0642,46.4711],[7.0443,47.3405],[7.586,47.5846]],[[7.586,47.5846],[7.5726,48.095],[7.8103,48.615],[8.1887,48.9657],[6.8435,49.2111],[6.3453,49.4553]],[[6.3453,49.4553],[5.7907,49.5378]],[[5.7907,49.5378],[5.4021,49.6025],[4.7883,49.9743],[4.4351,49.9323],[4.0227,50.3381],[2.7867,50.7234],[2.5218,51.0875]],[[55.7879,-21.1034],[55.5784,-20.8748],[55.303,-20.9052],[55.3545,-21.2746],[55.7879,-21.1034]],[[8.5658,42.2086],[8.6956,41.7294],[9.2107,41.4409],[9.5527,42.113],[9.5281,42.5635],[9.1071,42.7259],[8.6675,42.5097],[8.5658,42.2086]],[[-54.171,5.3484],[-54.0367,5.8424],[-54.7736,5.9853],[-55.8444,5.976],[-55.9992,5.8107],[-56.9565,6.0116],[-57.2477,5.4849]],[[-57.2477,5.4849],[-57.3152,5.0261],[-57.7205,4.9898],[-58.0677,4.1511],[-57.8298,3.6624],[-57.5651,3.3498],[-57.2836,3.3438],[-57.1746,2.819],[-56.7052,2.0296],[-56.4818,1.9416]],[[-56.4818,1.9416],[-56.0197,1.8335],[-55.9258,2.0617],[-56.1168,2.3331],[-55.0177,2.5906],[-54.6153,2.3263]],[[-57.2477,5.4849],[-57.1673,6.0851],[-58.0679,6.8217],[-58.3984,6.8834],[-58.4642,7.3122],[-59.1652,8.0587],[-60.021,8.558]],[[-60.021,8.558],[-59.8156,8.2878],[-60.0195,8.0603],[-60.5033,7.8209],[-60.7306,7.5254],[-60.421,6.9422],[-61.2048,6.5958],[-61.1216,6.1867],[-61.3796,5.9053],[-60.7399,5.2021]],[[-60.7399,5.2021],[-60.2134,5.2672],[-59.9831,5.0859],[-60.0877,4.6075],[-59.6867,4.38